[
    {
        "name": "Allegheny",
        "location": "41.650; -79.017",
        "state": "Pennsylvania",
        "country": "USA",
        "imageURL": null,
        "remarks": null
    },
    {
        "name": "Angeles",
        "location": "34.400; -118.167",
        "state": "California",
        "country": "USA",
        "imageURL": null,
        "remarks": null
    },
    {
        "name": "Angelina",
        "location": "31.217; -94.283",
        "state": "Texas",
        "country": "USA",
        "imageURL": null,
        "remarks": null
    },
    {
        "name": "Apache–Sitgreaves",
        "location": "33.733; -109.083",
        "state": "Arizona, New Mexico",
        "country": "USA",
        "imageURL": null,
        "remarks": null
    },
    {
        "name": "Apalachicola",
        "location": "30.183; -84.683",
        "state": "Florida",
        "country": "USA",
        "imageURL": null,
        "remarks": null
    },
    {
        "name": "Arapaho",
        "location": "39.683; -105.933",
        "state": "Colorado",
        "country": "USA",
        "imageURL": null,
        "remarks": null
    },
    {
        "name": "Ashley",
        "location": "40.633; -110.100",
        "state": "Utah, Wyoming",
        "country": "USA",
        "imageURL": null,
        "remarks": null
    },
    {
        "name": "Beaverhead–Deerlodge",
        "location": "45.500; -113.000",
        "state": "Montana",
        "country": "USA",
        "imageURL": null,
        "remarks": null
    },
    {
        "name": "Bienville",
        "location": "32.267; -89.500",
        "state": "Mississippi",
        "country": "USA",
        "imageURL": null,
        "remarks": null
    },
    {
        "name": "Bighorn",
        "location": "44.533; -107.350",
        "state": "Wyoming",
        "country": "USA",
        "imageURL": null,
        "remarks": null
    },
    {
        "name": "Bitterroot",
        "location": "45.767; -114.283",
        "state": "Montana, Idaho",
        "country": "USA",
        "imageURL": null,
        "remarks": null
    },
    {
        "name": "Black Hills",
        "location": "44.000; -103.783",
        "state": "South Dakota, Wyoming",
        "country": "USA",
        "imageURL": null,
        "remarks": null
    },
    {
        "name": "Boise",
        "location": "44.117; -115.567",
        "state": "Idaho",
        "country": "USA",
        "imageURL": null,
        "remarks": null
    },
    {
        "name": "Bridger–Teton",
        "location": "42.750; -110.750",
        "state": "Wyoming",
        "country": "USA",
        "imageURL": null,
        "remarks": null
    },
    {
        "name": "Caribou–Targhee",
        "location": "41.950; -112.133",
        "state": "Idaho, Wyoming",
        "country": "USA",
        "imageURL": null,
        "remarks": null
    },
    {
        "name": "Carson",
        "location": "36.500; -106.067",
        "state": "New Mexico",
        "country": "USA",
        "imageURL": null,
        "remarks": null
    },
    {
        "name": "Chattahoochee–Oconee",
        "location": "34.750; -84.117",
        "state": "Georgia",
        "country": "USA",
        "imageURL": null,
        "remarks": null
    },
    {
        "name": "Chequamegon–Nicolet",
        "location": "46.033; -90.800",
        "state": "Wisconsin",
        "country": "USA",
        "imageURL": null,
        "remarks": null
    },
    {
        "name": "Cherokee",
        "location": "35.867; -83.050",
        "state": "Tennessee, North Carolina",
        "country": "USA",
        "imageURL": null,
        "remarks": null
    },
    {
        "name": "Chippewa",
        "location": "47.400; -94.133",
        "state": "Minnesota",
        "country": "USA",
        "imageURL": null,
        "remarks": null
    },
    {
        "name": "Chugach",
        "location": "60.467; -149.117",
        "state": "Alaska",
        "country": "USA",
        "imageURL": null,
        "remarks": null
    },
    {
        "name": "Cibola",
        "location": "34.333; -107.583",
        "state": "New Mexico",
        "country": "USA",
        "imageURL": null,
        "remarks": null
    },
    {
        "name": "Clearwater",
        "location": "46.550; -115.150",
        "state": "Idaho",
        "country": "USA",
        "imageURL": null,
        "remarks": null
    },
    {
        "name": "Cleveland",
        "location": "32.750; -116.600",
        "state": "California",
        "country": "USA",
        "imageURL": null,
        "remarks": null
    },
    {
        "name": "Coconino",
        "location": "34.750; -111.550",
        "state": "Arizona",
        "country": "USA",
        "imageURL": null,
        "remarks": null
    },
    {
        "name": "Colville",
        "location": "48.533; -117.900",
        "state": "Washington",
        "country": "USA",
        "imageURL": null,
        "remarks": null
    },
    {
        "name": "Conecuh",
        "location": "31.083; -86.633",
        "state": "Alabama",
        "country": "USA",
        "imageURL": null,
        "remarks": null
    },
    {
        "name": "Coronado",
        "location": "32.500; -110.667",
        "state": "Arizona, New Mexico",
        "country": "USA",
        "imageURL": null,
        "remarks": null
    },
    {
        "name": "Croatan",
        "location": "34.867; -77.000",
        "state": "North Carolina",
        "country": "USA",
        "imageURL": null,
        "remarks": null
    },
    {
        "name": "Custer",
        "location": "45.500; -106.000",
        "state": "Montana, South Dakota",
        "country": "USA",
        "imageURL": null,
        "remarks": null
    },
    {
        "name": "Daniel Boone",
        "location": "37.283; -83.867",
        "state": "Kentucky",
        "country": "USA",
        "imageURL": null,
        "remarks": null
    },
    {
        "name": "Davy Crockett",
        "location": "31.300; -95.100",
        "state": "Texas",
        "country": "USA",
        "imageURL": null,
        "remarks": null
    },
    {
        "name": "Delta",
        "location": "32.750; -90.767",
        "state": "Mississippi",
        "country": "USA",
        "imageURL": null,
        "remarks": null
    },
    {
        "name": "Deschutes",
        "location": "43.833; -121.533",
        "state": "Oregon",
        "country": "USA",
        "imageURL": null,
        "remarks": null
    },
    {
        "name": "De Soto",
        "location": "31.033; -88.983",
        "state": "Mississippi",
        "country": "USA",
        "imageURL": null,
        "remarks": null
    },
    {
        "name": "Dixie",
        "location": "38.250; -111.500",
        "state": "Utah",
        "country": "USA",
        "imageURL": null,
        "remarks": null
    },
    {
        "name": "Eldorado",
        "location": "38.783; -120.317",
        "state": "California",
        "country": "USA",
        "imageURL": null,
        "remarks": null
    },
    {
        "name": "El Yunque",
        "location": "18.283; -65.800",
        "state": "Puerto Rico",
        "country": "USA",
        "imageURL": null,
        "remarks": null
    },
    {
        "name": "Finger Lakes",
        "location": "42.517; -76.783",
        "state": "New York",
        "country": "USA",
        "imageURL": null,
        "remarks": null
    },
    {
        "name": "Fishlake",
        "location": "38.700; -111.950",
        "state": "Utah",
        "country": "USA",
        "imageURL": null,
        "remarks": null
    },
    {
        "name": "Flathead",
        "location": "48.017; -113.800",
        "state": "Montana",
        "country": "USA",
        "imageURL": null,
        "remarks": null
    },
    {
        "name": "Francis Marion",
        "location": "33.167; -79.700",
        "state": "South Carolina",
        "country": "USA",
        "imageURL": null,
        "remarks": null
    },
    {
        "name": "Fremont–Winema",
        "location": "42.567; -120.867",
        "state": "Oregon",
        "country": "USA",
        "imageURL": null,
        "remarks": null
    },
    {
        "name": "Gallatin",
        "location": "45.250; -111.000",
        "state": "Montana",
        "country": "USA",
        "imageURL": null,
        "remarks": null
    },
    {
        "name": "George Washington & Jefferson",
        "location": "38.200; -79.350",
        "state": "Virginia, West Virginia, Kentucky",
        "country": "USA",
        "imageURL": null,
        "remarks": null
    },
    {
        "name": "Gifford Pinchot",
        "location": "46.167; -121.800",
        "state": "Washington",
        "country": "USA",
        "imageURL": null,
        "remarks": null
    },
    {
        "name": "Gila",
        "location": "33.283; -108.333",
        "state": "New Mexico",
        "country": "USA",
        "imageURL": null,
        "remarks": null
    },
    {
        "name": "Grand Mesa",
        "location": "39.083; -107.900",
        "state": "Colorado",
        "country": "USA",
        "imageURL": null,
        "remarks": null
    },
    {
        "name": "Green Mountain",
        "location": "43.300; -73.000",
        "state": "Vermont",
        "country": "USA",
        "imageURL": null,
        "remarks": null
    },
    {
        "name": "Gunnison",
        "location": "38.683; -106.683",
        "state": "Colorado",
        "country": "USA",
        "imageURL": null,
        "remarks": null
    },
    {
        "name": "Helena",
        "location": "46.550; -112.200",
        "state": "Montana",
        "country": "USA",
        "imageURL": null,
        "remarks": null
    },
    {
        "name": "Hiawatha",
        "location": "46.167; -86.667",
        "state": "Michigan",
        "country": "USA",
        "imageURL": null,
        "remarks": null
    },
    {
        "name": "Holly Springs",
        "location": "34.567; -89.300",
        "state": "Mississippi",
        "country": "USA",
        "imageURL": null,
        "remarks": null
    },
    {
        "name": "Homochitto",
        "location": "31.433; -90.933",
        "state": "Mississippi",
        "country": "USA",
        "imageURL": null,
        "remarks": null
    },
    {
        "name": "Hoosier",
        "location": "38.517; -86.517",
        "state": "Indiana",
        "country": "USA",
        "imageURL": null,
        "remarks": null
    },
    {
        "name": "Humboldt–Toiyabe",
        "location": "40.383; -115.550",
        "state": "Nevada, California",
        "country": "USA",
        "imageURL": null,
        "remarks": null
    },
    {
        "name": "Huron–Manistee",
        "location": "44.550; -83.867",
        "state": "Michigan",
        "country": "USA",
        "imageURL": null,
        "remarks": null
    },
    {
        "name": "Idaho PanhandleCoeur d'Alene, St. Joe, Kaniksu",
        "location": "47.717; -116.217",
        "state": "Idaho, Montana, Washington",
        "country": "USA",
        "imageURL": null,
        "remarks": null
    },
    {
        "name": "Inyo",
        "location": "37.500; -118.650",
        "state": "California, Nevada",
        "country": "USA",
        "imageURL": null,
        "remarks": null
    },
    {
        "name": "Kaibab",
        "location": "35.933; -112.150",
        "state": "Arizona",
        "country": "USA",
        "imageURL": null,
        "remarks": null
    },
    {
        "name": "Kisatchie",
        "location": "31.000; -92.617",
        "state": "Louisiana",
        "country": "USA",
        "imageURL": null,
        "remarks": null
    },
    {
        "name": "Klamath",
        "location": "41.500; -123.133",
        "state": "California, Oregon",
        "country": "USA",
        "imageURL": null,
        "remarks": null
    },
    {
        "name": "Kootenai",
        "location": "48.533; -115.433",
        "state": "Montana, Idaho",
        "country": "USA",
        "imageURL": null,
        "remarks": null
    },
    {
        "name": "Lake Tahoe Basin Management Unit",
        "location": "38.917; -119.967",
        "state": "California, Nevada",
        "country": "USA",
        "imageURL": null,
        "remarks": null
    },
    {
        "name": "Land Between The Lakes",
        "location": "36.77750; -88.06306",
        "state": "Kentucky, Tennessee",
        "country": "USA",
        "imageURL": null,
        "remarks": null
    },
    {
        "name": "Lassen",
        "location": "40.083; -121.233",
        "state": "California",
        "country": "USA",
        "imageURL": null,
        "remarks": null
    },
    {
        "name": "Lewis and Clark",
        "location": "46.917; -110.633",
        "state": "Montana",
        "country": "USA",
        "imageURL": null,
        "remarks": null
    },
    {
        "name": "Lincoln",
        "location": "32.950; -105.433",
        "state": "New Mexico",
        "country": "USA",
        "imageURL": null,
        "remarks": null
    },
    {
        "name": "Lolo",
        "location": "47.150; -114.433",
        "state": "Montana",
        "country": "USA",
        "imageURL": null,
        "remarks": null
    },
    {
        "name": "Los Padres",
        "location": "34.533; -119.767",
        "state": "California",
        "country": "USA",
        "imageURL": null,
        "remarks": null
    },
    {
        "name": "Malheur",
        "location": "44.250; -118.850",
        "state": "Oregon",
        "country": "USA",
        "imageURL": null,
        "remarks": null
    },
    {
        "name": "Manti–La Sal",
        "location": "38.383; -109.017",
        "state": "Utah, Colorado",
        "country": "USA",
        "imageURL": null,
        "remarks": null
    },
    {
        "name": "Mark Twain",
        "location": "37.000; -91.500",
        "state": "Missouri",
        "country": "USA",
        "imageURL": null,
        "remarks": null
    },
    {
        "name": "Medicine Bow–Routt",
        "location": "41.233; -106.250",
        "state": "Colorado, Wyoming",
        "country": "USA",
        "imageURL": null,
        "remarks": null
    },
    {
        "name": "Mendocino",
        "location": "39.633; -122.850",
        "state": "California",
        "country": "USA",
        "imageURL": null,
        "remarks": null
    },
    {
        "name": "Modoc",
        "location": "41.567; -120.883",
        "state": "California",
        "country": "USA",
        "imageURL": null,
        "remarks": null
    },
    {
        "name": "Monongahela",
        "location": "38.550; -79.900",
        "state": "West Virginia",
        "country": "USA",
        "imageURL": null,
        "remarks": null
    },
    {
        "name": "Mount Baker–Snoqualmie",
        "location": "48.467; -121.417",
        "state": "Washington",
        "country": "USA",
        "imageURL": null,
        "remarks": null
    },
    {
        "name": "Mount Hood",
        "location": "45.267; -121.817",
        "state": "Oregon",
        "country": "USA",
        "imageURL": null,
        "remarks": null
    },
    {
        "name": "Nantahala",
        "location": "35.200; -83.550",
        "state": "North Carolina",
        "country": "USA",
        "imageURL": null,
        "remarks": null
    },
    {
        "name": "Nebraska",
        "location": "41.700; -100.367",
        "state": "Nebraska",
        "country": "USA",
        "imageURL": null,
        "remarks": null
    },
    {
        "name": "Nez Perce",
        "location": "45.450; -115.917",
        "state": "Idaho",
        "country": "USA",
        "imageURL": null,
        "remarks": null
    },
    {
        "name": "Ocala",
        "location": "29.200; -81.733",
        "state": "Florida",
        "country": "USA",
        "imageURL": null,
        "remarks": null
    },
    {
        "name": "Ochoco",
        "location": "44.367; -120.117",
        "state": "Oregon",
        "country": "USA",
        "imageURL": null,
        "remarks": null
    },
    {
        "name": "Okanogan-Wenatchee",
        "location": "48.633; -119.583",
        "state": "Washington",
        "country": "USA",
        "imageURL": null,
        "remarks": null
    },
    {
        "name": "Olympic",
        "location": "48.117; -124.250",
        "state": "Washington",
        "country": "USA",
        "imageURL": null,
        "remarks": null
    },
    {
        "name": "Osceola",
        "location": "30.317; -82.450",
        "state": "Florida",
        "country": "USA",
        "imageURL": null,
        "remarks": null
    },
    {
        "name": "Ottawa",
        "location": "46.450; -89.250",
        "state": "Michigan",
        "country": "USA",
        "imageURL": null,
        "remarks": null
    },
    {
        "name": "Ouachita",
        "location": "34.633; -94.067",
        "state": "Arkansas, Oklahoma",
        "country": "USA",
        "imageURL": null,
        "remarks": null
    },
    {
        "name": "Ozark–St. Francis",
        "location": "35.700; -93.350",
        "state": "Arkansas",
        "country": "USA",
        "imageURL": null,
        "remarks": null
    },
    {
        "name": "Payette",
        "location": "45.083; -115.800",
        "state": "Idaho",
        "country": "USA",
        "imageURL": null,
        "remarks": null
    },
    {
        "name": "Pike",
        "location": "39.167; -105.450",
        "state": "Colorado",
        "country": "USA",
        "imageURL": null,
        "remarks": null
    },
    {
        "name": "Pisgah",
        "location": "35.800; -82.333",
        "state": "North Carolina",
        "country": "USA",
        "imageURL": null,
        "remarks": null
    },
    {
        "name": "Plumas",
        "location": "39.933; -120.817",
        "state": "California",
        "country": "USA",
        "imageURL": null,
        "remarks": null
    },
    {
        "name": "Prescott",
        "location": "34.583; -112.600",
        "state": "Arizona",
        "country": "USA",
        "imageURL": null,
        "remarks": null
    },
    {
        "name": "Rio Grande",
        "location": "37.717; -106.617",
        "state": "Colorado",
        "country": "USA",
        "imageURL": null,
        "remarks": null
    },
    {
        "name": "Rogue River–Siskiyou",
        "location": "41.967; -123.133",
        "state": "Oregon, California",
        "country": "USA",
        "imageURL": null,
        "remarks": null
    },
    {
        "name": "Roosevelt",
        "location": "40.533; -105.583",
        "state": "Colorado",
        "country": "USA",
        "imageURL": null,
        "remarks": null
    },
    {
        "name": "Sabine",
        "location": "31.500; -93.867",
        "state": "Texas",
        "country": "USA",
        "imageURL": null,
        "remarks": null
    },
    {
        "name": "Salmon–Challis",
        "location": "45.117; -114.150",
        "state": "Idaho",
        "country": "USA",
        "imageURL": null,
        "remarks": null
    },
    {
        "name": "Sam Houston",
        "location": "30.533; -95.350",
        "state": "Texas",
        "country": "USA",
        "imageURL": null,
        "remarks": null
    },
    {
        "name": "Samuel R. McKelvie",
        "location": "42.717; -101.033",
        "state": "Nebraska",
        "country": "USA",
        "imageURL": null,
        "remarks": null
    },
    {
        "name": "San Bernardino",
        "location": "34.050; -116.950",
        "state": "California",
        "country": "USA",
        "imageURL": null,
        "remarks": null
    },
    {
        "name": "San Isabel",
        "location": "38.400; -105.933",
        "state": "Colorado",
        "country": "USA",
        "imageURL": null,
        "remarks": null
    },
    {
        "name": "San Juan",
        "location": "37.500; -107.650",
        "state": "Colorado",
        "country": "USA",
        "imageURL": null,
        "remarks": null
    },
    {
        "name": "Santa Fe",
        "location": "35.900; -106.217",
        "state": "New Mexico",
        "country": "USA",
        "imageURL": null,
        "remarks": null
    },
    {
        "name": "Sawtooth",
        "location": "41.900; -113.483",
        "state": "Idaho, Utah",
        "country": "USA",
        "imageURL": null,
        "remarks": null
    },
    {
        "name": "Sequoia",
        "location": "36.050; -118.517",
        "state": "California",
        "country": "USA",
        "imageURL": null,
        "remarks": null
    },
    {
        "name": "Shasta–Trinity",
        "location": "41.133; -122.200",
        "state": "California",
        "country": "USA",
        "imageURL": null,
        "remarks": null
    },
    {
        "name": "Shawnee",
        "location": "37.500; -88.800",
        "state": "Illinois",
        "country": "USA",
        "imageURL": null,
        "remarks": null
    },
    {
        "name": "Shoshone",
        "location": "44.033; -109.533",
        "state": "Wyoming",
        "country": "USA",
        "imageURL": null,
        "remarks": null
    },
    {
        "name": "Sierra",
        "location": "37.267; -119.200",
        "state": "California",
        "country": "USA",
        "imageURL": null,
        "remarks": null
    },
    {
        "name": "Siuslaw",
        "location": "44.533; -123.883",
        "state": "Oregon",
        "country": "USA",
        "imageURL": null,
        "remarks": null
    },
    {
        "name": "Six Rivers",
        "location": "40.350; -123.600",
        "state": "California",
        "country": "USA",
        "imageURL": null,
        "remarks": null
    },
    {
        "name": "Stanislaus",
        "location": "38.167; -120.017",
        "state": "California",
        "country": "USA",
        "imageURL": null,
        "remarks": null
    },
    {
        "name": "Sumter",
        "location": "34.000; -82.250",
        "state": "South Carolina",
        "country": "USA",
        "imageURL": null,
        "remarks": null
    },
    {
        "name": "Superior",
        "location": "47.833; -91.517",
        "state": "Minnesota",
        "country": "USA",
        "imageURL": null,
        "remarks": null
    },
    {
        "name": "Tahoe",
        "location": "39.383; -120.533",
        "state": "California",
        "country": "USA",
        "imageURL": null,
        "remarks": null
    },
    {
        "name": "Talladega",
        "location": "33.433; -85.850",
        "state": "Alabama",
        "country": "USA",
        "imageURL": null,
        "remarks": null
    },
    {
        "name": "Tombigbee",
        "location": "33.933; -88.933",
        "state": "Mississippi",
        "country": "USA",
        "imageURL": null,
        "remarks": null
    },
    {
        "name": "Tongass",
        "location": "56.800; -133.900",
        "state": "Alaska",
        "country": "USA",
        "imageURL": null,
        "remarks": null
    },
    {
        "name": "Tonto",
        "location": "33.867; -111.283",
        "state": "Arizona",
        "country": "USA",
        "imageURL": null,
        "remarks": null
    },
    {
        "name": "Tuskegee",
        "location": "32.467; -85.600",
        "state": "Alabama",
        "country": "USA",
        "imageURL": null,
        "remarks": null
    },
    {
        "name": "Uinta–Wasatch–Cache",
        "location": "41.250; -111.433",
        "state": "Utah, Wyoming, Idaho",
        "country": "USA",
        "imageURL": null,
        "remarks": null
    },
    {
        "name": "Umatilla",
        "location": "45.633; -118.183",
        "state": "Oregon, Washington",
        "country": "USA",
        "imageURL": null,
        "remarks": null
    },
    {
        "name": "Umpqua",
        "location": "43.217; -122.583",
        "state": "Oregon",
        "country": "USA",
        "imageURL": null,
        "remarks": null
    },
    {
        "name": "Uncompahgre",
        "location": "38.267; -108.117",
        "state": "Colorado",
        "country": "USA",
        "imageURL": null,
        "remarks": null
    },
    {
        "name": "Uwharrie",
        "location": "35.400; -79.933",
        "state": "North Carolina",
        "country": "USA",
        "imageURL": null,
        "remarks": null
    },
    {
        "name": "Wallowa-Whitman",
        "location": "45.217; -117.517",
        "state": "Oregon, Idaho",
        "country": "USA",
        "imageURL": null,
        "remarks": null
    },
    {
        "name": "Wayne",
        "location": "39.167; -82.417",
        "state": "Ohio",
        "country": "USA",
        "imageURL": null,
        "remarks": null
    },
    {
        "name": "White Mountain",
        "location": "44.150; -71.417",
        "state": "New Hampshire, Maine",
        "country": "USA",
        "imageURL": null,
        "remarks": null
    },
    {
        "name": "White River",
        "location": "39.567; -106.883",
        "state": "Colorado",
        "country": "USA",
        "imageURL": null,
        "remarks": null
    },
    {
        "name": "Willamette",
        "location": "44.117; -122.183",
        "state": "Oregon",
        "country": "USA",
        "imageURL": null,
        "remarks": null
    },
    {
        "name": "William B. Bankhead",
        "location": "34.233; -87.333",
        "state": "Alabama",
        "country": "USA",
        "imageURL": null,
        "remarks": null
    }
]
