[
    {
        "formatted_address": "Cheswick, PA 15024, United States",
        "geometry": {
            "location": {
                "lat": 40.5372947,
                "lng": -79.8216202
            },
            "viewport": {
                "northeast": {
                    "lat": 40.54120415000001,
                    "lng": -79.82082602010728
                },
                "southwest": {
                    "lat": 40.53599154999998,
                    "lng": -79.82352567989273
                }
            }
        },
        "name": "Allegheny Islands State Park",
        "rating": 4.4
    },
    {
        "formatted_address": "960 Scranton Carbondale Hwy, Archbald, PA 18403, United States",
        "geometry": {
            "location": {
                "lat": 41.5130357,
                "lng": -75.57574509999999
            },
            "viewport": {
                "northeast": {
                    "lat": 41.51439487989272,
                    "lng": -75.57443662010728
                },
                "southwest": {
                    "lat": 41.51169522010728,
                    "lng": -75.57713627989273
                }
            }
        },
        "name": "Archbald Pothole State Park",
        "opening_hours": {},
        "rating": 3.9
    },
    {
        "formatted_address": "149 Main Park Rd, Howard, PA 16841, United States",
        "geometry": {
            "location": {
                "lat": 41.0349533,
                "lng": -77.6512008
            },
            "viewport": {
                "northeast": {
                    "lat": 41.03643752989272,
                    "lng": -77.64967097010728
                },
                "southwest": {
                    "lat": 41.03373787010727,
                    "lng": -77.65237062989272
                }
            }
        },
        "name": "Bald Eagle State Park",
        "rating": 4.7
    },
    {
        "formatted_address": "2950 Pohopoco Dr, Lehighton, PA 18235, United States",
        "geometry": {
            "location": {
                "lat": 40.8650993,
                "lng": -75.627268
            },
            "viewport": {
                "northeast": {
                    "lat": 40.86650472989272,
                    "lng": -75.62592617010729
                },
                "southwest": {
                    "lat": 40.86380507010728,
                    "lng": -75.62862582989273
                }
            }
        },
        "name": "Beltzville State Park",
        "opening_hours": {
            "open_now": true
        },
        "rating": 4.6
    },
    {
        "formatted_address": "State Park Rd, Wilcox, PA 15870, United States",
        "geometry": {
            "location": {
                "lat": 41.52820750000001,
                "lng": -78.6280926
            },
            "viewport": {
                "northeast": {
                    "lat": 41.52955937989272,
                    "lng": -78.62670087010727
                },
                "southwest": {
                    "lat": 41.52685972010728,
                    "lng": -78.62940052989272
                }
            }
        },
        "name": "Bendigo State Park",
        "opening_hours": {
            "open_now": true
        },
        "rating": 4.6
    },
    {
        "formatted_address": "15001 Roosevelt Blvd, Philadelphia, PA 19154, United States",
        "geometry": {
            "location": {
                "lat": 40.1184473,
                "lng": -74.97540359999999
            },
            "viewport": {
                "northeast": {
                    "lat": 40.1215024,
                    "lng": -74.95772849999999
                },
                "southwest": {
                    "lat": 40.10928199999999,
                    "lng": -74.99760609999998
                }
            }
        },
        "name": "Benjamin Rush State Park",
        "opening_hours": {},
        "rating": 4.4
    },
    {
        "formatted_address": "980 Camelback Rd, Tannersville, PA 18372, United States",
        "geometry": {
            "location": {
                "lat": 41.0420768,
                "lng": -75.3515671
            },
            "viewport": {
                "northeast": {
                    "lat": 41.04522125,
                    "lng": -75.34280444999999
                },
                "southwest": {
                    "lat": 41.04102865,
                    "lng": -75.37785505
                }
            }
        },
        "name": "Big Pocono State Park",
        "rating": 4.7
    },
    {
        "formatted_address": "Hemlock Rd, Blain, PA 17006, United States",
        "geometry": {
            "location": {
                "lat": 40.2631365,
                "lng": -77.65898949999999
            },
            "viewport": {
                "northeast": {
                    "lat": 40.26412147989272,
                    "lng": -77.65739342010728
                },
                "southwest": {
                    "lat": 40.26142182010727,
                    "lng": -77.66009307989272
                }
            }
        },
        "name": "Big Spring State Park",
        "rating": 4.7
    },
    {
        "formatted_address": "4216 Beaver Rd, Philipsburg, PA 16866, United States",
        "geometry": {
            "location": {
                "lat": 40.9152805,
                "lng": -78.060833
            },
            "viewport": {
                "northeast": {
                    "lat": 40.91653217989272,
                    "lng": -78.05959677010728
                },
                "southwest": {
                    "lat": 40.91383252010728,
                    "lng": -78.06229642989273
                }
            }
        },
        "name": "Black Moshannon State Park",
        "opening_hours": {
            "open_now": false
        },
        "rating": 4.7
    },
    {
        "formatted_address": "Park Rd, Imler, PA 16655, United States",
        "geometry": {
            "location": {
                "lat": 40.2890611,
                "lng": -78.5897625
            },
            "viewport": {
                "northeast": {
                    "lat": 40.29037507989273,
                    "lng": -78.58841597010728
                },
                "southwest": {
                    "lat": 40.28767542010728,
                    "lng": -78.59111562989273
                }
            }
        },
        "name": "Blue Knob State Park",
        "rating": 4.6
    },
    {
        "formatted_address": "401 Fishing Creek Valley Rd, Harrisburg, PA 17112, United States",
        "geometry": {
            "location": {
                "lat": 40.3588768,
                "lng": -76.8671945
            },
            "viewport": {
                "northeast": {
                    "lat": 40.36032437989272,
                    "lng": -76.86592722010728
                },
                "southwest": {
                    "lat": 40.35762472010728,
                    "lng": -76.86862687989273
                }
            }
        },
        "name": "Boyd Big Tree Preserve Conservation Area",
        "opening_hours": {},
        "rating": 4.7
    },
    {
        "formatted_address": "2831 W Stony Batter Rd, Mercersburg, PA 17236, United States",
        "geometry": {
            "location": {
                "lat": 39.8707681,
                "lng": -77.9535016
            },
            "viewport": {
                "northeast": {
                    "lat": 39.87218607989272,
                    "lng": -77.95190597010728
                },
                "southwest": {
                    "lat": 39.86948642010728,
                    "lng": -77.95460562989273
                }
            }
        },
        "name": "Buchanan's Birthplace State Park",
        "opening_hours": {
            "open_now": false
        },
        "rating": 4.5
    },
    {
        "formatted_address": "Renovo, PA 17764, United States",
        "geometry": {
            "location": {
                "lat": 41.3063839,
                "lng": -77.73861219999999
            },
            "viewport": {
                "northeast": {
                    "lat": 41.31103180000002,
                    "lng": -77.73790364999999
                },
                "southwest": {
                    "lat": 41.30483460000001,
                    "lng": -77.74073785000002
                }
            }
        },
        "name": "Bucktail State Park Natural Area",
        "rating": 4.7
    },
    {
        "formatted_address": "101 Pine Grove Rd, Fayetteville, PA 17222, United States",
        "geometry": {
            "location": {
                "lat": 39.9114255,
                "lng": -77.48005289999999
            },
            "viewport": {
                "northeast": {
                    "lat": 39.92326855000001,
                    "lng": -77.4601275
                },
                "southwest": {
                    "lat": 39.89584195,
                    "lng": -77.48669469999999
                }
            }
        },
        "name": "Caledonia State Park",
        "opening_hours": {
            "open_now": false
        },
        "rating": 4.7
    },
    {
        "formatted_address": "205 Canoe Creek Rd, Hollidaysburg, PA 16648, United States",
        "geometry": {
            "location": {
                "lat": 40.4796306,
                "lng": -78.2898349
            },
            "viewport": {
                "northeast": {
                    "lat": 40.48100667989272,
                    "lng": -78.28846217010728
                },
                "southwest": {
                    "lat": 40.47830702010728,
                    "lng": -78.29116182989272
                }
            }
        },
        "name": "Canoe Creek State Park",
        "opening_hours": {
            "open_now": true
        },
        "rating": 4.6
    },
    {
        "formatted_address": "4790 Chapman Dam Rd, Clarendon, PA 16313, United States",
        "geometry": {
            "location": {
                "lat": 41.7524646,
                "lng": -79.17405889999999
            },
            "viewport": {
                "northeast": {
                    "lat": 41.75935575,
                    "lng": -79.16989205
                },
                "southwest": {
                    "lat": 41.75016755,
                    "lng": -79.17544785
                }
            }
        },
        "name": "Chapman State Park",
        "opening_hours": {
            "open_now": true
        },
        "rating": 4.6
    },
    {
        "formatted_address": "4639 Cherry Springs Rd, Coudersport, PA 16915, United States",
        "geometry": {
            "location": {
                "lat": 41.6632215,
                "lng": -77.8234031
            },
            "viewport": {
                "northeast": {
                    "lat": 41.66457967989272,
                    "lng": -77.82204202010726
                },
                "southwest": {
                    "lat": 41.66188002010728,
                    "lng": -77.82474167989271
                }
            }
        },
        "name": "Cherry Springs State Park",
        "opening_hours": {
            "open_now": true
        },
        "rating": 4.8
    },
    {
        "formatted_address": "38 Clear Creek, Park Rd, Sigel, PA 15860, United States",
        "geometry": {
            "location": {
                "lat": 41.3270846,
                "lng": -79.0925931
            },
            "viewport": {
                "northeast": {
                    "lat": 41.32862447989272,
                    "lng": -79.09093102010728
                },
                "southwest": {
                    "lat": 41.32592482010728,
                    "lng": -79.09363067989271
                }
            }
        },
        "name": "Clear Creek State Park",
        "opening_hours": {
            "open_now": true
        },
        "rating": 4.8
    },
    {
        "formatted_address": "Marina Dr, Hanover, PA 17331, United States",
        "geometry": {
            "location": {
                "lat": 39.7886824,
                "lng": -76.90684159999999
            },
            "viewport": {
                "northeast": {
                    "lat": 39.81350925,
                    "lng": -76.85473449999998
                },
                "southwest": {
                    "lat": 39.75531945000001,
                    "lng": -76.9500985
                }
            }
        },
        "name": "Codorus State Park",
        "opening_hours": {
            "open_now": true
        },
        "rating": 4.7
    },
    {
        "formatted_address": "1599 Doubling Gap Rd, Newville, PA 17241, United States",
        "geometry": {
            "location": {
                "lat": 40.2807311,
                "lng": -77.4182758
            },
            "viewport": {
                "northeast": {
                    "lat": 40.28218792989272,
                    "lng": -77.41713122010728
                },
                "southwest": {
                    "lat": 40.27948827010728,
                    "lng": -77.41983087989273
                }
            }
        },
        "name": "Colonel Denning State Park",
        "opening_hours": {
            "open_now": true
        },
        "rating": 4.7
    },
    {
        "formatted_address": "927 Colton Rd, Wellsboro, PA 16901, United States",
        "geometry": {
            "location": {
                "lat": 41.706522,
                "lng": -77.46649699999999
            },
            "viewport": {
                "northeast": {
                    "lat": 41.70785052989272,
                    "lng": -77.46523602010727
                },
                "southwest": {
                    "lat": 41.70515087010728,
                    "lng": -77.46793567989272
                }
            }
        },
        "name": "Colton Point State Park",
        "opening_hours": {
            "open_now": false
        },
        "rating": 4.8
    },
    {
        "formatted_address": "100 PA-36, Cooksburg, PA 16217, United States",
        "geometry": {
            "location": {
                "lat": 41.3329661,
                "lng": -79.20906409999999
            },
            "viewport": {
                "northeast": {
                    "lat": 41.33424242989272,
                    "lng": -79.20789012010728
                },
                "southwest": {
                    "lat": 41.33154277010728,
                    "lng": -79.21058977989271
                }
            }
        },
        "name": "Cook Forest State Park Office",
        "opening_hours": {
            "open_now": false
        },
        "rating": 4.6
    },
    {
        "formatted_address": "6235 Aughwick Rd, Fort Loudon, PA 17224, United States",
        "geometry": {
            "location": {
                "lat": 39.9990621,
                "lng": -77.9215615
            },
            "viewport": {
                "northeast": {
                    "lat": 40.00044872989272,
                    "lng": -77.92015552010727
                },
                "southwest": {
                    "lat": 39.99774907010728,
                    "lng": -77.92285517989271
                }
            }
        },
        "name": "Cowans Gap State Park",
        "rating": 4.7
    },
    {
        "formatted_address": "11 Lodi Hill Rd, Upper Black Eddy, PA 18972, United States",
        "geometry": {
            "location": {
                "lat": 40.5503405,
                "lng": -75.0854971
            },
            "viewport": {
                "northeast": {
                    "lat": 40.55168422989272,
                    "lng": -75.08414027010728
                },
                "southwest": {
                    "lat": 40.54898457010728,
                    "lng": -75.08683992989272
                }
            }
        },
        "name": "Delaware Canal State Park",
        "opening_hours": {
            "open_now": false
        },
        "rating": 4.6
    },
    {
        "formatted_address": "US-6, Ulysses, PA 16948, United States",
        "geometry": {
            "location": {
                "lat": 41.7685761,
                "lng": -77.8338693
            },
            "viewport": {
                "northeast": {
                    "lat": 41.77716075,
                    "lng": -77.83224880000002
                },
                "southwest": {
                    "lat": 41.76571455000001,
                    "lng": -77.8387308
                }
            }
        },
        "name": "Denton Hill State Park",
        "opening_hours": {
            "open_now": true
        },
        "rating": 4.1
    },
    {
        "formatted_address": "Maple Ln, Wilcox, PA 15870, United States",
        "geometry": {
            "location": {
                "lat": 41.5649907,
                "lng": -78.59278809999999
            },
            "viewport": {
                "northeast": {
                    "lat": 41.56628577989272,
                    "lng": -78.59152287010727
                },
                "southwest": {
                    "lat": 41.56358612010727,
                    "lng": -78.59422252989272
                }
            }
        },
        "name": "Elk State Park",
        "rating": 4.3
    },
    {
        "formatted_address": "11100 W Lake Rd, Lake City, PA 16423, United States",
        "geometry": {
            "location": {
                "lat": 42.0154866,
                "lng": -80.3754026
            },
            "viewport": {
                "northeast": {
                    "lat": 42.01684027989272,
                    "lng": -80.37405557010727
                },
                "southwest": {
                    "lat": 42.01414062010727,
                    "lng": -80.37675522989271
                }
            }
        },
        "name": "Erie Bluffs State Park",
        "opening_hours": {
            "open_now": true
        },
        "rating": 4.6
    },
    {
        "formatted_address": "851 Mayhall Rd, Collegeville, PA 19426, United States",
        "geometry": {
            "location": {
                "lat": 40.2006789,
                "lng": -75.4040205
            },
            "viewport": {
                "northeast": {
                    "lat": 40.20198212989272,
                    "lng": -75.40262257010728
                },
                "southwest": {
                    "lat": 40.19928247010728,
                    "lng": -75.40532222989272
                }
            }
        },
        "name": "Evansburg State Park",
        "opening_hours": {
            "open_now": true
        },
        "rating": 4.6
    },
    {
        "formatted_address": "500 S Bethlehem Pike, Fort Washington, PA 19034, United States",
        "geometry": {
            "location": {
                "lat": 40.1208988,
                "lng": -75.2236592
            },
            "viewport": {
                "northeast": {
                    "lat": 40.12229507989272,
                    "lng": -75.22228717010728
                },
                "southwest": {
                    "lat": 40.11959542010727,
                    "lng": -75.22498682989271
                }
            }
        },
        "name": "Fort Washington State Park",
        "opening_hours": {},
        "rating": 4.6
    },
    {
        "formatted_address": "Blain, PA 17006, United States",
        "geometry": {
            "location": {
                "lat": 40.2712016,
                "lng": -77.57985219999999
            },
            "viewport": {
                "northeast": {
                    "lat": 40.27289812989272,
                    "lng": -77.57906677010727
                },
                "southwest": {
                    "lat": 40.27019847010728,
                    "lng": -77.58176642989272
                }
            }
        },
        "name": "Fowlers Hollow State Park",
        "opening_hours": {
            "open_now": true
        },
        "rating": 4.6
    },
    {
        "formatted_address": "567 Mt Olivet Rd, Wyoming, PA 18644, United States",
        "geometry": {
            "location": {
                "lat": 41.3407113,
                "lng": -75.892579
            },
            "viewport": {
                "northeast": {
                    "lat": 41.35016775,
                    "lng": -75.89154209999998
                },
                "southwest": {
                    "lat": 41.33755915,
                    "lng": -75.8956897
                }
            }
        },
        "name": "Frances Slocum State Park",
        "opening_hours": {
            "open_now": true
        },
        "rating": 4.7
    },
    {
        "formatted_address": "843 Park Rd, Elverson, PA 19520, United States",
        "geometry": {
            "location": {
                "lat": 40.2090506,
                "lng": -75.7832667
            },
            "viewport": {
                "northeast": {
                    "lat": 40.21011287989273,
                    "lng": -75.78204812010728
                },
                "southwest": {
                    "lat": 40.20741322010728,
                    "lng": -75.78474777989271
                }
            }
        },
        "name": "French Creek State Park",
        "opening_hours": {
            "open_now": true
        },
        "rating": 4.6
    },
    {
        "formatted_address": "Gifford Pinchot State Park, Warrington Township, PA, USA",
        "geometry": {
            "location": {
                "lat": 40.0790903,
                "lng": -76.8889855
            },
            "viewport": {
                "northeast": {
                    "lat": 40.08044012989272,
                    "lng": -76.88763567010727
                },
                "southwest": {
                    "lat": 40.07774047010727,
                    "lng": -76.89033532989272
                }
            }
        },
        "name": "Gifford Pinchot State Park"
    },
    {
        "formatted_address": "Pennsylvania 507 at, State Pk Rd, Gouldsboro, PA 18424, United States",
        "geometry": {
            "location": {
                "lat": 41.2426315,
                "lng": -75.468733
            },
            "viewport": {
                "northeast": {
                    "lat": 41.24398362989272,
                    "lng": -75.46737307010727
                },
                "southwest": {
                    "lat": 41.24128397010728,
                    "lng": -75.4700727298927
                }
            }
        },
        "name": "Gouldsboro State Park",
        "rating": 4.5
    },
    {
        "formatted_address": "15795 Greenwood Rd, Huntingdon, PA 16652, United States",
        "geometry": {
            "location": {
                "lat": 40.6506723,
                "lng": -77.7541591
            },
            "viewport": {
                "northeast": {
                    "lat": 40.65180887989272,
                    "lng": -77.75271322010727
                },
                "southwest": {
                    "lat": 40.64910922010728,
                    "lng": -77.75541287989272
                }
            }
        },
        "name": "Greenwood Furnace State Park",
        "opening_hours": {
            "open_now": true
        },
        "rating": 4.7
    },
    {
        "formatted_address": "3613 PA-534, White Haven, PA 18661, United States",
        "geometry": {
            "location": {
                "lat": 41.0246709,
                "lng": -75.7094924
            },
            "viewport": {
                "northeast": {
                    "lat": 41.02608442989273,
                    "lng": -75.70819057010728
                },
                "southwest": {
                    "lat": 41.02338477010728,
                    "lng": -75.71089022989273
                }
            }
        },
        "name": "Hickory Run State Park",
        "opening_hours": {
            "open_now": true
        },
        "rating": 4.7
    },
    {
        "formatted_address": "Burgettstown, PA 15021, United States",
        "geometry": {
            "location": {
                "lat": 40.4536011,
                "lng": -80.404837
            },
            "viewport": {
                "northeast": {
                    "lat": 40.45495092989272,
                    "lng": -80.40348717010728
                },
                "southwest": {
                    "lat": 40.45225127010728,
                    "lng": -80.40618682989272
                }
            }
        },
        "name": "Hillman State Park",
        "opening_hours": {
            "open_now": true
        },
        "rating": 4.6
    },
    {
        "formatted_address": "111 Spill Way Rd, Wellsboro, PA 16901, United States",
        "geometry": {
            "location": {
                "lat": 41.8076645,
                "lng": -77.19678859999999
            },
            "viewport": {
                "northeast": {
                    "lat": 41.80906652989272,
                    "lng": -77.19526602010728
                },
                "southwest": {
                    "lat": 41.80636687010728,
                    "lng": -77.19796567989272
                }
            }
        },
        "name": "Hills Creek State Park",
        "opening_hours": {
            "open_now": true
        },
        "rating": 4.7
    },
    {
        "formatted_address": "86 Hyner Park Rd, North Bend, PA 17760, United States",
        "geometry": {
            "location": {
                "lat": 41.3602283,
                "lng": -77.6255541
            },
            "viewport": {
                "northeast": {
                    "lat": 41.36195147989272,
                    "lng": -77.62452292010728
                },
                "southwest": {
                    "lat": 41.35925182010727,
                    "lng": -77.62722257989273
                }
            }
        },
        "name": "Hyner Run State Park",
        "rating": 4.7
    },
    {
        "formatted_address": "86 Hyner Park Road, North Bend, PA 17760, United States",
        "geometry": {
            "location": {
                "lat": 41.3266425,
                "lng": -77.6236368
            },
            "viewport": {
                "northeast": {
                    "lat": 41.32797527989272,
                    "lng": -77.62230187010728
                },
                "southwest": {
                    "lat": 41.32527562010728,
                    "lng": -77.62500152989273
                }
            }
        },
        "name": "Hyner View State Park",
        "rating": 4.9
    },
    {
        "formatted_address": "400 Belfast Rd, Nazareth, PA 18064, United States",
        "geometry": {
            "location": {
                "lat": 40.7842784,
                "lng": -75.29413459999999
            },
            "viewport": {
                "northeast": {
                    "lat": 40.78560532989272,
                    "lng": -75.29218147010728
                },
                "southwest": {
                    "lat": 40.78290567010728,
                    "lng": -75.29488112989272
                }
            }
        },
        "name": "Jacobsburg Environmental Education Center",
        "opening_hours": {},
        "rating": 4.8
    },
    {
        "formatted_address": "2951 Prospect Rd, Slippery Rock, PA 16057, United States",
        "geometry": {
            "location": {
                "lat": 41.0096382,
                "lng": -80.0038209
            },
            "viewport": {
                "northeast": {
                    "lat": 41.01095887989273,
                    "lng": -80.00236277010728
                },
                "southwest": {
                    "lat": 41.00825922010728,
                    "lng": -80.00506242989273
                }
            }
        },
        "name": "Jennings Environmental Education Center",
        "opening_hours": {},
        "rating": 4.8
    },
    {
        "formatted_address": "1609 Back Rd, Halifax, PA 17032, United States",
        "geometry": {
            "location": {
                "lat": 40.4432844,
                "lng": -76.8610976
            },
            "viewport": {
                "northeast": {
                    "lat": 40.44473722989272,
                    "lng": -76.85981787010728
                },
                "southwest": {
                    "lat": 40.44203757010727,
                    "lng": -76.86251752989271
                }
            }
        },
        "name": "Joseph E. Ibberson Conservation Area",
        "opening_hours": {
            "open_now": false
        },
        "rating": 4.7
    },
    {
        "formatted_address": "97 Kettle Creek Park Ln, Renovo, PA 17764, United States",
        "geometry": {
            "location": {
                "lat": 41.3750499,
                "lng": -77.932518
            },
            "viewport": {
                "northeast": {
                    "lat": 41.37641247989272,
                    "lng": -77.93124247010728
                },
                "southwest": {
                    "lat": 41.37371282010728,
                    "lng": -77.93394212989273
                }
            }
        },
        "name": "Kettle Creek State Park",
        "opening_hours": {
            "open_now": true
        },
        "rating": 4.7
    },
    {
        "formatted_address": "1150 Keystone Park Rd, Derry, PA 15627, United States",
        "geometry": {
            "location": {
                "lat": 40.3725903,
                "lng": -79.3850148
            },
            "viewport": {
                "northeast": {
                    "lat": 40.37869815000001,
                    "lng": -79.36378864999999
                },
                "southwest": {
                    "lat": 40.37047714999999,
                    "lng": -79.40726165000001
                }
            }
        },
        "name": "Keystone State Park",
        "opening_hours": {
            "open_now": false
        },
        "rating": 4.7
    },
    {
        "formatted_address": "500 Kings Gap Rd, Carlisle, PA 17015, United States",
        "geometry": {
            "location": {
                "lat": 40.09247269999999,
                "lng": -77.26712429999999
            },
            "viewport": {
                "northeast": {
                    "lat": 40.09375517989272,
                    "lng": -77.26616732010729
                },
                "southwest": {
                    "lat": 40.09105552010728,
                    "lng": -77.26886697989272
                }
            }
        },
        "name": "Kings Gap Environmental Education Center",
        "opening_hours": {
            "open_now": true
        },
        "rating": 4.8
    },
    {
        "formatted_address": "296 Viaduct Rd, Mt Jewett, PA 16740, United States",
        "geometry": {
            "location": {
                "lat": 41.7597904,
                "lng": -78.5871306
            },
            "viewport": {
                "northeast": {
                    "lat": 41.76070832989272,
                    "lng": -78.58587662010727
                },
                "southwest": {
                    "lat": 41.75800867010727,
                    "lng": -78.58857627989272
                }
            }
        },
        "name": "Kinzua Bridge State Park",
        "opening_hours": {
            "open_now": false
        },
        "rating": 4.9
    },
    {
        "formatted_address": "943 Glades Pike, Somerset, PA 15501, United States",
        "geometry": {
            "location": {
                "lat": 40.0602337,
                "lng": -79.2324713
            },
            "viewport": {
                "northeast": {
                    "lat": 40.06208477989272,
                    "lng": -79.23077052010727
                },
                "southwest": {
                    "lat": 40.05938512010728,
                    "lng": -79.23347017989272
                }
            }
        },
        "name": "Kooser State Park",
        "opening_hours": {
            "open_now": true
        },
        "rating": 4.5
    },
    {
        "formatted_address": "1839 N Abington Rd, North Abington Township, PA 18414, United States",
        "geometry": {
            "location": {
                "lat": 41.570055,
                "lng": -75.7031698
            },
            "viewport": {
                "northeast": {
                    "lat": 41.59949195,
                    "lng": -75.66931615
                },
                "southwest": {
                    "lat": 41.53850494999999,
                    "lng": -75.73156834999999
                }
            }
        },
        "name": "Lackawanna State Park",
        "opening_hours": {
            "open_now": true
        },
        "rating": 4.6
    },
    {
        "formatted_address": "1454 Laurel Hill Park Rd, Somerset, PA 15501, United States",
        "geometry": {
            "location": {
                "lat": 40.0101421,
                "lng": -79.2243475
            },
            "viewport": {
                "northeast": {
                    "lat": 40.01150492989272,
                    "lng": -79.22298427010729
                },
                "southwest": {
                    "lat": 40.00880527010727,
                    "lng": -79.22568392989272
                }
            }
        },
        "name": "Laurel Hill State Park",
        "rating": 4.8
    },
    {
        "formatted_address": "770 Ligonier Road, Rector, PA 15677, United States",
        "geometry": {
            "location": {
                "lat": 40.1638488,
                "lng": -79.163319
            },
            "viewport": {
                "northeast": {
                    "lat": 40.16510777989271,
                    "lng": -79.16203067010728
                },
                "southwest": {
                    "lat": 40.16240812010727,
                    "lng": -79.16473032989273
                }
            }
        },
        "name": "Laurel Mountain State Park",
        "rating": 4.7
    },
    {
        "formatted_address": "Rockwood, PA 15557, United States",
        "geometry": {
            "location": {
                "lat": 40.2562069,
                "lng": -79.0731071
            },
            "viewport": {
                "northeast": {
                    "lat": 40.25749957989272,
                    "lng": -79.0711229
                },
                "southwest": {
                    "lat": 40.25479992010727,
                    "lng": -79.0790597
                }
            }
        },
        "name": "Laurel Ridge State Park",
        "rating": 4.7
    },
    {
        "formatted_address": "Linn Run Rd, Somerset, PA 15501, United States",
        "geometry": {
            "location": {
                "lat": 40.1175183,
                "lng": -79.1770506
            },
            "viewport": {
                "northeast": {
                    "lat": 40.11884717989272,
                    "lng": -79.17570992010728
                },
                "southwest": {
                    "lat": 40.11614752010728,
                    "lng": -79.17840957989273
                }
            }
        },
        "name": "Laurel Summit State Park",
        "opening_hours": {
            "open_now": true
        },
        "rating": 4.6
    },
    {
        "formatted_address": "S Lehigh Gorge Dr, Weatherly, PA 18255, United States",
        "geometry": {
            "location": {
                "lat": 40.9666769,
                "lng": -75.75508769999999
            },
            "viewport": {
                "northeast": {
                    "lat": 40.96759037989272,
                    "lng": -75.75329435
                },
                "southwest": {
                    "lat": 40.96489072010728,
                    "lng": -75.76046774999998
                }
            }
        },
        "name": "Lehigh Gorge State Park - Rockport Access",
        "opening_hours": {
            "open_now": true
        },
        "rating": 4.8
    },
    {
        "formatted_address": "4797 PA-660, Wellsboro, PA 16901, United States",
        "geometry": {
            "location": {
                "lat": 41.6962584,
                "lng": -77.4545866
            },
            "viewport": {
                "northeast": {
                    "lat": 41.69770017989272,
                    "lng": -77.45324227010727
                },
                "southwest": {
                    "lat": 41.69500052010728,
                    "lng": -77.45594192989272
                }
            }
        },
        "name": "Leonard Harrison State Park Visitor Center or Grand Canyon of Pennsylvania",
        "rating": 4.8
    },
    {
        "formatted_address": "770 Linn Run Rd, Rector, PA 15677, United States",
        "geometry": {
            "location": {
                "lat": 40.1734675,
                "lng": -79.2360322
            },
            "viewport": {
                "northeast": {
                    "lat": 40.17481652989272,
                    "lng": -79.23465997010727
                },
                "southwest": {
                    "lat": 40.17211687010728,
                    "lng": -79.23735962989272
                }
            }
        },
        "name": "Linn Run State Park",
        "opening_hours": {
            "open_now": true
        },
        "rating": 4.8
    },
    {
        "formatted_address": "1579 State Park Rd, Newport, PA 17074, United States",
        "geometry": {
            "location": {
                "lat": 40.4587103,
                "lng": -77.16833989999999
            },
            "viewport": {
                "northeast": {
                    "lat": 40.46003652989273,
                    "lng": -77.16705057010728
                },
                "southwest": {
                    "lat": 40.45733687010728,
                    "lng": -77.16975022989271
                }
            }
        },
        "name": "Little Buffalo State Park",
        "opening_hours": {
            "open_now": true
        },
        "rating": 4.7
    },
    {
        "formatted_address": "4205 Little Pine Creek Rd, Waterville, PA 17776, United States",
        "geometry": {
            "location": {
                "lat": 41.3600853,
                "lng": -77.3531261
            },
            "viewport": {
                "northeast": {
                    "lat": 41.36171617989272,
                    "lng": -77.35091025
                },
                "southwest": {
                    "lat": 41.35901652010727,
                    "lng": -77.35977365000001
                }
            }
        },
        "name": "Little Pine State Park",
        "opening_hours": {
            "open_now": true
        },
        "rating": 4.7
    },
    {
        "formatted_address": "Locust Lake Rd, Barnesville, PA 18214, United States",
        "geometry": {
            "location": {
                "lat": 40.7850362,
                "lng": -76.1195238
            },
            "viewport": {
                "northeast": {
                    "lat": 40.78639207989272,
                    "lng": -76.11817197010727
                },
                "southwest": {
                    "lat": 40.78369242010727,
                    "lng": -76.12087162989272
                }
            }
        },
        "name": "Locust Lake State Park Campground",
        "rating": 4.5
    },
    {
        "formatted_address": "454 Lyman Run Rd, Galeton, PA 16922, United States",
        "geometry": {
            "location": {
                "lat": 41.7251144,
                "lng": -77.75992939999999
            },
            "viewport": {
                "northeast": {
                    "lat": 41.72649122989272,
                    "lng": -77.75855567010727
                },
                "southwest": {
                    "lat": 41.72379157010727,
                    "lng": -77.76125532989272
                }
            }
        },
        "name": "Lyman Run State Park",
        "opening_hours": {
            "open_now": true
        },
        "rating": 4.8
    },
    {
        "formatted_address": "675 Park Rd, Downingtown, PA 19335, United States",
        "geometry": {
            "location": {
                "lat": 40.0691776,
                "lng": -75.7197565
            },
            "viewport": {
                "northeast": {
                    "lat": 40.07068272989272,
                    "lng": -75.7161553
                },
                "southwest": {
                    "lat": 40.06798307010727,
                    "lng": -75.7209569
                }
            }
        },
        "name": "Marsh Creek State Park",
        "opening_hours": {
            "open_now": true
        },
        "rating": 4.7
    },
    {
        "formatted_address": "684 Lake Wilhelm Rd, Sandy Lake, PA 16145, United States",
        "geometry": {
            "location": {
                "lat": 41.4269162,
                "lng": -80.1469446
            },
            "viewport": {
                "northeast": {
                    "lat": 41.42825882989272,
                    "lng": -80.14558447010728
                },
                "southwest": {
                    "lat": 41.42555917010728,
                    "lng": -80.14828412989272
                }
            }
        },
        "name": "Maurice K Goddard State Park",
        "rating": 4.7
    },
    {
        "formatted_address": "17215 Buffalo Rd, Mifflinburg, PA 17844, United States",
        "geometry": {
            "location": {
                "lat": 41.0141556,
                "lng": -77.1954453
            },
            "viewport": {
                "northeast": {
                    "lat": 41.01550542989272,
                    "lng": -77.19409547010729
                },
                "southwest": {
                    "lat": 41.01280577010728,
                    "lng": -77.19679512989272
                }
            }
        },
        "name": "McCalls Dam State Park",
        "rating": 4.5
    },
    {
        "formatted_address": "1761 McConnells Mill Rd, Portersville, PA 16051, United States",
        "geometry": {
            "location": {
                "lat": 40.9511122,
                "lng": -80.1691826
            },
            "viewport": {
                "northeast": {
                    "lat": 40.95234472989272,
                    "lng": -80.16781847010728
                },
                "southwest": {
                    "lat": 40.94964507010727,
                    "lng": -80.17051812989273
                }
            }
        },
        "name": "McConnells Mill State Park",
        "opening_hours": {
            "open_now": true
        },
        "rating": 4.8
    },
    {
        "formatted_address": "18 Boundary Rd, Grantville, PA 17028, United States",
        "geometry": {
            "location": {
                "lat": 40.423634,
                "lng": -76.59656439999999
            },
            "viewport": {
                "northeast": {
                    "lat": 40.42498077989273,
                    "lng": -76.59523012010727
                },
                "southwest": {
                    "lat": 40.42228112010729,
                    "lng": -76.59792977989272
                }
            }
        },
        "name": "Memorial Lake State Park",
        "rating": 4.7
    },
    {
        "formatted_address": "205 PA-642, Milton, PA 17847, United States",
        "geometry": {
            "location": {
                "lat": 41.0181003,
                "lng": -76.8605025
            },
            "viewport": {
                "northeast": {
                    "lat": 41.01927412989272,
                    "lng": -76.85933647010728
                },
                "southwest": {
                    "lat": 41.01657447010728,
                    "lng": -76.86203612989272
                }
            }
        },
        "name": "Milton State Park",
        "opening_hours": {
            "open_now": true
        },
        "rating": 4.4
    },
    {
        "formatted_address": "Mont Alto, PA 17237, United States",
        "geometry": {
            "location": {
                "lat": 39.8388705,
                "lng": -77.53650449999999
            },
            "viewport": {
                "northeast": {
                    "lat": 39.84027602989273,
                    "lng": -77.53513202010727
                },
                "southwest": {
                    "lat": 39.83757637010729,
                    "lng": -77.53783167989272
                }
            }
        },
        "name": "Mont Alto State Park",
        "opening_hours": {
            "open_now": true
        },
        "rating": 4.4
    },
    {
        "formatted_address": "225 Pleasant Valley Rd, Portersville, PA 16051, United States",
        "geometry": {
            "location": {
                "lat": 40.9390483,
                "lng": -80.0978076
            },
            "viewport": {
                "northeast": {
                    "lat": 40.94045002989272,
                    "lng": -80.09618937010728
                },
                "southwest": {
                    "lat": 40.93775037010728,
                    "lng": -80.09888902989272
                }
            }
        },
        "name": "Moraine State Park",
        "opening_hours": {
            "open_now": false
        },
        "rating": 4.7
    },
    {
        "formatted_address": "28 Entrance Rd, Troy, PA 16947, United States",
        "geometry": {
            "location": {
                "lat": 41.8045403,
                "lng": -76.6730348
            },
            "viewport": {
                "northeast": {
                    "lat": 41.8068176,
                    "lng": -76.66781164999999
                },
                "southwest": {
                    "lat": 41.8037812,
                    "lng": -76.67477585
                }
            }
        },
        "name": "Mt. Pisgah State Park",
        "opening_hours": {
            "open_now": true
        },
        "rating": 4.7
    },
    {
        "formatted_address": "1137 Honey Hole Rd, Drums, PA 18222, United States",
        "geometry": {
            "location": {
                "lat": 41.0910847,
                "lng": -75.8798201
            },
            "viewport": {
                "northeast": {
                    "lat": 41.09255452989272,
                    "lng": -75.87850357010727
                },
                "southwest": {
                    "lat": 41.08985487010727,
                    "lng": -75.88120322989272
                }
            }
        },
        "name": "Nescopeck State Park",
        "opening_hours": {
            "open_now": true
        },
        "rating": 4.6
    },
    {
        "formatted_address": "3401 State Rd., Bensalem, PA 19020, United States",
        "geometry": {
            "location": {
                "lat": 40.0774601,
                "lng": -74.9179199
            },
            "viewport": {
                "northeast": {
                    "lat": 40.07897187989272,
                    "lng": -74.91632252010729
                },
                "southwest": {
                    "lat": 40.07627222010728,
                    "lng": -74.91902217989274
                }
            }
        },
        "name": "Neshaminy State Park",
        "opening_hours": {
            "open_now": true
        },
        "rating": 4.5
    },
    {
        "formatted_address": "1542 Mountain View Dr, Quakertown, PA 18951, United States",
        "geometry": {
            "location": {
                "lat": 40.4517265,
                "lng": -75.2349338
            },
            "viewport": {
                "northeast": {
                    "lat": 40.46882365,
                    "lng": -75.2313825
                },
                "southwest": {
                    "lat": 40.44602744999998,
                    "lng": -75.2455877
                }
            }
        },
        "name": "Nockamixon State Park",
        "rating": 4.7
    },
    {
        "formatted_address": "3025 New Holland Rd, Reading, PA 19607, United States",
        "geometry": {
            "location": {
                "lat": 40.2812962,
                "lng": -75.9483387
            },
            "viewport": {
                "northeast": {
                    "lat": 40.28268002989273,
                    "lng": -75.94670927010728
                },
                "southwest": {
                    "lat": 40.27998037010729,
                    "lng": -75.94940892989273
                }
            }
        },
        "name": "Nolde Forest - Sawmill",
        "opening_hours": {
            "open_now": false
        },
        "rating": 4.8
    },
    {
        "formatted_address": "2500 Upper Farm Rd, Norristown, PA 19403, United States",
        "geometry": {
            "location": {
                "lat": 40.1430506,
                "lng": -75.3468291
            },
            "viewport": {
                "northeast": {
                    "lat": 40.14499117989271,
                    "lng": -75.3459726
                },
                "southwest": {
                    "lat": 40.14229152010727,
                    "lng": -75.3493986
                }
            }
        },
        "name": "Norristown Farm Park",
        "opening_hours": {
            "open_now": true
        },
        "rating": 4.7
    },
    {
        "formatted_address": "124 Main St, Ohiopyle, PA 15470, United States",
        "geometry": {
            "location": {
                "lat": 39.868022,
                "lng": -79.4942011
            },
            "viewport": {
                "northeast": {
                    "lat": 39.91268554999999,
                    "lng": -79.38231549999999
                },
                "southwest": {
                    "lat": 39.78333735,
                    "lng": -79.56339469999999
                }
            }
        },
        "name": "Ohiopyle State Park",
        "opening_hours": {
            "open_now": true
        },
        "rating": 4.8
    },
    {
        "formatted_address": "305 State Park Rd, Oil City, PA 16301, United States",
        "geometry": {
            "location": {
                "lat": 41.5151473,
                "lng": -79.6804575
            },
            "viewport": {
                "northeast": {
                    "lat": 41.51648312989271,
                    "lng": -79.67922127010729
                },
                "southwest": {
                    "lat": 41.51378347010727,
                    "lng": -79.68192092989273
                }
            }
        },
        "name": "Oil Creek State Park",
        "opening_hours": {
            "open_now": false
        },
        "rating": 4.7
    },
    {
        "formatted_address": "31 Valhalla Lane, Cross Fork, PA 17729, United States",
        "geometry": {
            "location": {
                "lat": 41.537072,
                "lng": -77.71556290000001
            },
            "viewport": {
                "northeast": {
                    "lat": 41.53835677989272,
                    "lng": -77.71416377010728
                },
                "southwest": {
                    "lat": 41.53565712010727,
                    "lng": -77.71686342989271
                }
            }
        },
        "name": "Ole Bull State Park",
        "opening_hours": {
            "open_now": true
        },
        "rating": 4.8
    },
    {
        "formatted_address": "28 Fairview Rd, Penfield, PA 15849, United States",
        "geometry": {
            "location": {
                "lat": 41.1972568,
                "lng": -78.50958659999999
            },
            "viewport": {
                "northeast": {
                    "lat": 41.19865877989272,
                    "lng": -78.50846487010728
                },
                "southwest": {
                    "lat": 41.19595912010728,
                    "lng": -78.51116452989272
                }
            }
        },
        "name": "Parker Dam State Park",
        "opening_hours": {
            "open_now": true
        },
        "rating": 4.7
    },
    {
        "formatted_address": "2866 Cherry Springs Rd, Coudersport, PA 16915, United States",
        "geometry": {
            "location": {
                "lat": 41.6957748,
                "lng": -77.8931752
            },
            "viewport": {
                "northeast": {
                    "lat": 41.69712802989272,
                    "lng": -77.89184812010728
                },
                "southwest": {
                    "lat": 41.69442837010727,
                    "lng": -77.89454777989272
                }
            }
        },
        "name": "Patterson State Park",
        "opening_hours": {
            "open_now": true
        },
        "rating": 4.6
    },
    {
        "formatted_address": "Huntingdon, PA 16652, United States",
        "geometry": {
            "location": {
                "lat": 40.7268309,
                "lng": -77.7020113
            },
            "viewport": {
                "northeast": {
                    "lat": 40.72807362989272,
                    "lng": -77.70096637010728
                },
                "southwest": {
                    "lat": 40.72537397010728,
                    "lng": -77.70366602989273
                }
            }
        },
        "name": "Penn-Roosevelt State Park",
        "opening_hours": {
            "open_now": false
        },
        "rating": 4.5
    },
    {
        "formatted_address": "1100 Pine Grove Rd, Gardners, PA 17324, United States",
        "geometry": {
            "location": {
                "lat": 40.0321408,
                "lng": -77.2928404
            },
            "viewport": {
                "northeast": {
                    "lat": 40.05473469999999,
                    "lng": -77.23632380000001
                },
                "southwest": {
                    "lat": 40.00565950000001,
                    "lng": -77.3391818
                }
            }
        },
        "name": "Pine Grove Furnace State Park",
        "opening_hours": {
            "open_now": true
        },
        "rating": 4.7
    },
    {
        "formatted_address": "1087 Poe Paddy Dr, Woodward, PA 16882, United States",
        "geometry": {
            "location": {
                "lat": 40.8374278,
                "lng": -77.43003569999999
            },
            "viewport": {
                "northeast": {
                    "lat": 40.83869995000001,
                    "lng": -77.42879607010728
                },
                "southwest": {
                    "lat": 40.83361134999999,
                    "lng": -77.43149572989272
                }
            }
        },
        "name": "Poe Paddy State Park",
        "opening_hours": {
            "open_now": true
        },
        "rating": 4.8
    },
    {
        "formatted_address": "136 Poe Valley Rd, Penn Township, PA 176832, United States",
        "geometry": {
            "location": {
                "lat": 40.824098,
                "lng": -77.46732899999999
            },
            "viewport": {
                "northeast": {
                    "lat": 40.82543962989273,
                    "lng": -77.46597587010727
                },
                "southwest": {
                    "lat": 40.82273997010729,
                    "lng": -77.46867552989272
                }
            }
        },
        "name": "Poe Valley State Park",
        "opening_hours": {
            "open_now": true
        },
        "rating": 4.8
    },
    {
        "formatted_address": "601 Commonwealth Pl, Pittsburgh, PA 15222, United States",
        "geometry": {
            "location": {
                "lat": 40.4415719,
                "lng": -80.00785379999999
            },
            "viewport": {
                "northeast": {
                    "lat": 40.44301827989272,
                    "lng": -80.00612682010727
                },
                "southwest": {
                    "lat": 40.44031862010728,
                    "lng": -80.00882647989272
                }
            }
        },
        "name": "Point State Park",
        "opening_hours": {
            "open_now": true
        },
        "rating": 4.7
    },
    {
        "formatted_address": "301 Peninsula Dr, Erie, PA 16505, United States",
        "geometry": {
            "location": {
                "lat": 42.1585823,
                "lng": -80.1149411
            },
            "viewport": {
                "northeast": {
                    "lat": 42.18120400000001,
                    "lng": -80.09501465
                },
                "southwest": {
                    "lat": 42.09071719999999,
                    "lng": -80.17472045000001
                }
            }
        },
        "name": "Presque Isle State Park",
        "opening_hours": {
            "open_now": true
        },
        "rating": 4.8
    },
    {
        "formatted_address": "966 Marina Rd, Patton, PA 16668, United States",
        "geometry": {
            "location": {
                "lat": 40.6726856,
                "lng": -78.54848659999999
            },
            "viewport": {
                "northeast": {
                    "lat": 40.72242305,
                    "lng": -78.51861585
                },
                "southwest": {
                    "lat": 40.63189484999999,
                    "lng": -78.59608285
                }
            }
        },
        "name": "Prince Gallitzin State Park",
        "opening_hours": {
            "open_now": true
        },
        "rating": 4.7
    },
    {
        "formatted_address": "100 Lower Lake Rd, Greentown, PA 18426, United States",
        "geometry": {
            "location": {
                "lat": 41.3132099,
                "lng": -75.2089845
            },
            "viewport": {
                "northeast": {
                    "lat": 41.34243474999999,
                    "lng": -75.20159920000002
                },
                "southwest": {
                    "lat": 41.28532095,
                    "lng": -75.2166636
                }
            }
        },
        "name": "Promised Land State Park",
        "opening_hours": {
            "open_now": false
        },
        "rating": 4.7
    },
    {
        "formatted_address": "PA-170, Prompton, PA 18742, United States",
        "geometry": {
            "location": {
                "lat": 41.6099892,
                "lng": -75.3383027
            },
            "viewport": {
                "northeast": {
                    "lat": 41.61089602989271,
                    "lng": -75.33635335
                },
                "southwest": {
                    "lat": 41.60819637010727,
                    "lng": -75.34415075
                }
            }
        },
        "name": "Prompton State Park",
        "opening_hours": {
            "open_now": true
        },
        "rating": 4.6
    },
    {
        "formatted_address": "4843 Park Rd, Austin, PA 16720, United States",
        "geometry": {
            "location": {
                "lat": 41.6580812,
                "lng": -77.912639
            },
            "viewport": {
                "northeast": {
                    "lat": 41.65933837989273,
                    "lng": -77.91112697010728
                },
                "southwest": {
                    "lat": 41.65663872010729,
                    "lng": -77.91382662989272
                }
            }
        },
        "name": "Prouty Place State Park",
        "opening_hours": {
            "open_now": true
        },
        "rating": 3.1
    },
    {
        "formatted_address": "2660 Williamsfield Rd, Jamestown, PA 16134, United States",
        "geometry": {
            "location": {
                "lat": 41.4993684,
                "lng": -80.4680363
            },
            "viewport": {
                "northeast": {
                    "lat": 41.50084742989272,
                    "lng": -80.46671452010727
                },
                "southwest": {
                    "lat": 41.49814777010727,
                    "lng": -80.46941417989271
                }
            }
        },
        "name": "Pymatuning State Park Office",
        "opening_hours": {
            "open_now": false
        },
        "rating": 4.7
    },
    {
        "formatted_address": "7879, 17215 Buffalo Rd, Mifflinburg, PA 17844, United States",
        "geometry": {
            "location": {
                "lat": 40.9911793,
                "lng": -77.1920011
            },
            "viewport": {
                "northeast": {
                    "lat": 40.99234527989272,
                    "lng": -77.19073502010728
                },
                "southwest": {
                    "lat": 40.98964562010728,
                    "lng": -77.19343467989272
                }
            }
        },
        "name": "Raymond B. Winter State Park",
        "opening_hours": {
            "open_now": true
        },
        "rating": 4.8
    },
    {
        "formatted_address": "3000 PA-18, Hookstown, PA 15050, United States",
        "geometry": {
            "location": {
                "lat": 40.507862,
                "lng": -80.433497
            },
            "viewport": {
                "northeast": {
                    "lat": 40.51683805,
                    "lng": -80.41664824999998
                },
                "southwest": {
                    "lat": 40.48093385000001,
                    "lng": -80.43911325
                }
            }
        },
        "name": "Raccoon Creek State Park",
        "opening_hours": {
            "open_now": true
        },
        "rating": 4.6
    },
    {
        "formatted_address": "6011 State Park Rd, Pipersville, PA 18947, United States",
        "geometry": {
            "location": {
                "lat": 40.4348869,
                "lng": -75.0989228
            },
            "viewport": {
                "northeast": {
                    "lat": 40.43607917989272,
                    "lng": -75.09796092010728
                },
                "southwest": {
                    "lat": 40.43337952010728,
                    "lng": -75.10066057989272
                }
            }
        },
        "name": "Ralph Stover State Park",
        "opening_hours": {
            "open_now": true
        },
        "rating": 4.7
    },
    {
        "formatted_address": "2388 Rauchtown Rd, Jersey Shore, PA 17740, United States",
        "geometry": {
            "location": {
                "lat": 41.106089,
                "lng": -77.2436362
            },
            "viewport": {
                "northeast": {
                    "lat": 41.10745472989272,
                    "lng": -77.24269012010727
                },
                "southwest": {
                    "lat": 41.10475507010728,
                    "lng": -77.2453897798927
                }
            }
        },
        "name": "Ravensburg State Park",
        "rating": 4.7
    },
    {
        "formatted_address": "1405 New Lancaster Valley Rd, Milroy, PA 17063, United States",
        "geometry": {
            "location": {
                "lat": 40.7232905,
                "lng": -77.47510299999999
            },
            "viewport": {
                "northeast": {
                    "lat": 40.72445662989273,
                    "lng": -77.47360342010727
                },
                "southwest": {
                    "lat": 40.72175697010729,
                    "lng": -77.47630307989272
                }
            }
        },
        "name": "Reeds Gap State Park",
        "opening_hours": {
            "open_now": true
        },
        "rating": 4.6
    },
    {
        "formatted_address": "695 PA-487, Benton, PA 17814, United States",
        "geometry": {
            "location": {
                "lat": 41.3353698,
                "lng": -76.3014359
            },
            "viewport": {
                "northeast": {
                    "lat": 41.33665997989272,
                    "lng": -76.30030817010727
                },
                "southwest": {
                    "lat": 41.33396032010728,
                    "lng": -76.3030078298927
                }
            }
        },
        "name": "Ricketts Glen State Park",
        "rating": 4.8
    },
    {
        "formatted_address": "1023 Sycamore Mills Rd, Media, PA 19063, United States",
        "geometry": {
            "location": {
                "lat": 39.951373,
                "lng": -75.44404349999999
            },
            "viewport": {
                "northeast": {
                    "lat": 39.9699967,
                    "lng": -75.41930795
                },
                "southwest": {
                    "lat": 39.92913550000001,
                    "lng": -75.47389335
                }
            }
        },
        "name": "Ridley Creek State Park",
        "rating": 4.7
    },
    {
        "formatted_address": "361 Bristoria Rd, Graysville, PA 15337, United States",
        "geometry": {
            "location": {
                "lat": 39.8737325,
                "lng": -80.45079989999999
            },
            "viewport": {
                "northeast": {
                    "lat": 39.87502084999998,
                    "lng": -80.44375679999999
                },
                "southwest": {
                    "lat": 39.86986745000002,
                    "lng": -80.4531476
                }
            }
        },
        "name": "Ryerson Station State Park",
        "opening_hours": {
            "open_now": true
        },
        "rating": 4.3
    },
    {
        "formatted_address": "Penfield, PA 15849, United States",
        "geometry": {
            "location": {
                "lat": 41.1127997,
                "lng": -78.5258595
            },
            "viewport": {
                "northeast": {
                    "lat": 41.11412417989272,
                    "lng": -78.52463337010728
                },
                "southwest": {
                    "lat": 41.11142452010728,
                    "lng": -78.52733302989273
                }
            }
        },
        "name": "S.B. Elliott State Park",
        "rating": 4.5
    },
    {
        "formatted_address": "2305 Salt Springs Rd, Montrose, PA 18801, United States",
        "geometry": {
            "location": {
                "lat": 41.9117667,
                "lng": -75.8651586
            },
            "viewport": {
                "northeast": {
                    "lat": 41.91311612989272,
                    "lng": -75.86380092010727
                },
                "southwest": {
                    "lat": 41.91041647010728,
                    "lng": -75.86650057989272
                }
            }
        },
        "name": "Salt Springs State Park",
        "opening_hours": {
            "open_now": true
        },
        "rating": 4.7
    },
    {
        "formatted_address": "6000 Mt Pisgah Rd, York, PA 17406, United States",
        "geometry": {
            "location": {
                "lat": 39.9952955,
                "lng": -76.548357
            },
            "viewport": {
                "northeast": {
                    "lat": 39.99640947989273,
                    "lng": -76.54693192010727
                },
                "southwest": {
                    "lat": 39.99370982010728,
                    "lng": -76.54963157989272
                }
            }
        },
        "name": "Samuel S Lewis State Park",
        "opening_hours": {
            "open_now": true
        },
        "rating": 4.7
    },
    {
        "formatted_address": "13180 Buffalo Rd, Mifflinburg, PA 17844, United States",
        "geometry": {
            "location": {
                "lat": 40.98729489999999,
                "lng": -77.12682629999999
            },
            "viewport": {
                "northeast": {
                    "lat": 40.98853982989272,
                    "lng": -77.12543982010726
                },
                "southwest": {
                    "lat": 40.98584017010727,
                    "lng": -77.12813947989271
                }
            }
        },
        "name": "Sand Bridge State Park",
        "opening_hours": {
            "open_now": true
        },
        "rating": 4.5
    },
    {
        "formatted_address": "132 State Park Rd, Schellsburg, PA 15559, United States",
        "geometry": {
            "location": {
                "lat": 40.0264881,
                "lng": -78.63544420000001
            },
            "viewport": {
                "northeast": {
                    "lat": 40.02777622989272,
                    "lng": -78.63419122010727
                },
                "southwest": {
                    "lat": 40.02507657010728,
                    "lng": -78.63689087989272
                }
            }
        },
        "name": "Shawnee State Park",
        "rating": 4.7
    },
    {
        "formatted_address": "Shikellamy State Park Rd, Selinsgrove, PA 17870, United States",
        "geometry": {
            "location": {
                "lat": 40.8840454,
                "lng": -76.80468929999999
            },
            "viewport": {
                "northeast": {
                    "lat": 40.88539457989273,
                    "lng": -76.80332297010727
                },
                "southwest": {
                    "lat": 40.88269492010728,
                    "lng": -76.80602262989272
                }
            }
        },
        "name": "Shikellamy State Park: Overlook Section",
        "opening_hours": {
            "open_now": true
        },
        "rating": 4.7
    },
    {
        "formatted_address": "4843 Park Dr, Austin, PA 16720, United States",
        "geometry": {
            "location": {
                "lat": 41.4734215,
                "lng": -78.0562896
            },
            "viewport": {
                "northeast": {
                    "lat": 41.47461607989272,
                    "lng": -78.05497747010727
                },
                "southwest": {
                    "lat": 41.47191642010728,
                    "lng": -78.05767712989271
                }
            }
        },
        "name": "Sinnemahoning State Park",
        "opening_hours": {
            "open_now": false
        },
        "rating": 4.7
    },
    {
        "formatted_address": "199 E Cowley Run Rd, Emporium, PA 15834, United States",
        "geometry": {
            "location": {
                "lat": 41.5982366,
                "lng": -78.18006299999999
            },
            "viewport": {
                "northeast": {
                    "lat": 41.59908245,
                    "lng": -78.17842712010727
                },
                "southwest": {
                    "lat": 41.59569904999999,
                    "lng": -78.18112677989272
                }
            }
        },
        "name": "Sizerville State Park",
        "rating": 4.7
    },
    {
        "formatted_address": "2250 Hiawatha Blvd, Williamsport, PA 17701, United States",
        "geometry": {
            "location": {
                "lat": 41.2264518,
                "lng": -77.0468695
            },
            "viewport": {
                "northeast": {
                    "lat": 41.22785477989272,
                    "lng": -77.04555752010728
                },
                "southwest": {
                    "lat": 41.22515512010727,
                    "lng": -77.04825717989273
                }
            }
        },
        "name": "Susquehanna State Park",
        "opening_hours": {
            "open_now": true
        },
        "rating": 4.4
    },
    {
        "formatted_address": "1880 Park Dr, Drumore, PA 17518, United States",
        "geometry": {
            "location": {
                "lat": 39.8071783,
                "lng": -76.284635
            },
            "viewport": {
                "northeast": {
                    "lat": 39.80792454999999,
                    "lng": -76.28300762010727
                },
                "southwest": {
                    "lat": 39.80493955000001,
                    "lng": -76.28570727989272
                }
            }
        },
        "name": "Susquehannock State Park",
        "opening_hours": {
            "open_now": true
        },
        "rating": 4.8
    },
    {
        "formatted_address": "1450 Suedberg Rd, Pine Grove, PA 17963, United States",
        "geometry": {
            "location": {
                "lat": 40.5040645,
                "lng": -76.5238725
            },
            "viewport": {
                "northeast": {
                    "lat": 40.54504405,
                    "lng": -76.45054695
                },
                "southwest": {
                    "lat": 40.45846705,
                    "lng": -76.58674674999999
                }
            }
        },
        "name": "Swatara State Park",
        "rating": 4.7
    },
    {
        "formatted_address": "114 Campground Rd, Tobyhanna, PA 18466, United States",
        "geometry": {
            "location": {
                "lat": 41.2190373,
                "lng": -75.4053586
            },
            "viewport": {
                "northeast": {
                    "lat": 41.22518805,
                    "lng": -75.39226285000001
                },
                "southwest": {
                    "lat": 41.20058504999999,
                    "lng": -75.40972384999999
                }
            }
        },
        "name": "Tobyhanna State Park",
        "rating": 4.6
    },
    {
        "formatted_address": "16362 Little Valley Rd, James Creek, PA 16657, United States",
        "geometry": {
            "location": {
                "lat": 40.3223214,
                "lng": -78.12651040000002
            },
            "viewport": {
                "northeast": {
                    "lat": 40.32358572989271,
                    "lng": -78.12512107010728
                },
                "southwest": {
                    "lat": 40.32088607010727,
                    "lng": -78.12782072989273
                }
            }
        },
        "name": "Trough Creek State Park",
        "opening_hours": {
            "open_now": false
        },
        "rating": 4.8
    },
    {
        "formatted_address": "687 Tuscarora Park Rd, Barnesville, PA 18214, United States",
        "geometry": {
            "location": {
                "lat": 40.8092635,
                "lng": -76.0205783
            },
            "viewport": {
                "northeast": {
                    "lat": 40.81061852989273,
                    "lng": -76.01931117010727
                },
                "southwest": {
                    "lat": 40.80791887010728,
                    "lng": -76.02201082989272
                }
            }
        },
        "name": "Tuscarora State Park",
        "opening_hours": {
            "open_now": false
        },
        "rating": 4.5
    },
    {
        "formatted_address": "101 Swamp Rd, Newtown, PA 18940, United States",
        "geometry": {
            "location": {
                "lat": 40.2309692,
                "lng": -74.9531126
            },
            "viewport": {
                "northeast": {
                    "lat": 40.23221377989272,
                    "lng": -74.95165052010728
                },
                "southwest": {
                    "lat": 40.22951412010728,
                    "lng": -74.95435017989273
                }
            }
        },
        "name": "Tyler State Park",
        "opening_hours": {
            "open_now": false
        },
        "rating": 4.8
    },
    {
        "formatted_address": "Lock Haven, PA 17745, United States",
        "geometry": {
            "location": {
                "lat": 41.3191309,
                "lng": -77.42106919999999
            },
            "viewport": {
                "northeast": {
                    "lat": 41.32027837989272,
                    "lng": -77.41970497010728
                },
                "southwest": {
                    "lat": 41.31757872010728,
                    "lng": -77.42240462989272
                }
            }
        },
        "name": "Upper Pine Bottom State Park",
        "opening_hours": {},
        "rating": 4.4
    },
    {
        "formatted_address": "225 Tannery Rd, Lake Ariel, PA 18436, United States",
        "geometry": {
            "location": {
                "lat": 41.4861392,
                "lng": -75.3839691
            },
            "viewport": {
                "northeast": {
                    "lat": 41.48740552989272,
                    "lng": -75.38248487010728
                },
                "southwest": {
                    "lat": 41.48470587010728,
                    "lng": -75.38518452989273
                }
            }
        },
        "name": "Varden Conservation Area",
        "rating": 4.6
    },
    {
        "formatted_address": "1152 Warriors Path Park Rd, Saxton, PA 16678, United States",
        "geometry": {
            "location": {
                "lat": 40.1972808,
                "lng": -78.2531176
            },
            "viewport": {
                "northeast": {
                    "lat": 40.19863062989273,
                    "lng": -78.25176777010728
                },
                "southwest": {
                    "lat": 40.19593097010728,
                    "lng": -78.25446742989273
                }
            }
        },
        "name": "Warriors Path State Park",
        "opening_hours": {
            "open_now": false
        },
        "rating": 4.3
    },
    {
        "formatted_address": "1112 River Rd, Washington Crossing, PA 18977, United States",
        "geometry": {
            "location": {
                "lat": 40.295627,
                "lng": -74.8718556
            },
            "viewport": {
                "northeast": {
                    "lat": 40.29661347989273,
                    "lng": -74.87066047010728
                },
                "southwest": {
                    "lat": 40.29391382010728,
                    "lng": -74.87336012989272
                }
            }
        },
        "name": "Washington Crossing Historic Park",
        "opening_hours": {
            "open_now": false
        },
        "rating": 4.7
    },
    {
        "formatted_address": "3746 Laurel Run Rd, Petersburg, PA 16669, United States",
        "geometry": {
            "location": {
                "lat": 40.6829133,
                "lng": -77.8657022
            },
            "viewport": {
                "northeast": {
                    "lat": 40.68427237989272,
                    "lng": -77.86452192010728
                },
                "southwest": {
                    "lat": 40.68157272010728,
                    "lng": -77.86722157989271
                }
            }
        },
        "name": "Whipple Dam State Park",
        "opening_hours": {
            "open_now": true
        },
        "rating": 4.6
    },
    {
        "formatted_address": "404 Sharpless Rd, Landenberg, PA 19350, United States",
        "geometry": {
            "location": {
                "lat": 39.75172080000001,
                "lng": -75.7730369
            },
            "viewport": {
                "northeast": {
                    "lat": 39.75292067989272,
                    "lng": -75.7696145
                },
                "southwest": {
                    "lat": 39.75022102010728,
                    "lng": -75.7741777
                }
            }
        },
        "name": "White Clay Creek Preserve",
        "rating": 4.8
    },
    {
        "formatted_address": "82 Cabin Bridge Rd, Forksville, PA 18616, United States",
        "geometry": {
            "location": {
                "lat": 41.4666991,
                "lng": -76.5753685
            },
            "viewport": {
                "northeast": {
                    "lat": 41.47742145,
                    "lng": -76.54086495000001
                },
                "southwest": {
                    "lat": 41.45938725000001,
                    "lng": -76.60338995
                }
            }
        },
        "name": "Worlds End State Park",
        "rating": 4.9
    },
    {
        "formatted_address": "170 PA-259, Penn Run, PA 15765, United States",
        "geometry": {
            "location": {
                "lat": 40.578123,
                "lng": -79.00080059999999
            },
            "viewport": {
                "northeast": {
                    "lat": 40.57941652989272,
                    "lng": -78.99938267010727
                },
                "southwest": {
                    "lat": 40.57671687010728,
                    "lng": -79.00208232989272
                }
            }
        },
        "name": "Yellow Creek State Park",
        "opening_hours": {
            "open_now": true
        },
        "rating": 4.5
    }
]