[
    {
        "formatted_address": "600 James Robertson Pkwy, Nashville, TN 37243, United States",
        "geometry": {
            "location": {
                "lat": 36.1708875,
                "lng": -86.78758900000001
            },
            "viewport": {
                "northeast": {
                    "lat": 36.17662444999999,
                    "lng": -86.7845371
                },
                "southwest": {
                    "lat": 36.16525465,
                    "lng": -86.79174469999998
                }
            }
        },
        "name": "Bicentennial Capitol Mall State Park",
        "opening_hours": {
            "open_now": false
        },
        "rating": 4.7
    },
    {
        "formatted_address": "295 Big Cypress Rd, Greenfield, TN 38230, United States",
        "geometry": {
            "location": {
                "lat": 36.2023487,
                "lng": -88.889877
            },
            "viewport": {
                "northeast": {
                    "lat": 36.20817425,
                    "lng": -88.88867227010728
                },
                "southwest": {
                    "lat": 36.18487204999999,
                    "lng": -88.89137192989273
                }
            }
        },
        "name": "Big Cypress Tree State Park",
        "opening_hours": {
            "open_now": false
        },
        "rating": 4.2
    },
    {
        "formatted_address": "1435 John Howell Rd, Pocahontas, TN 38061, United States",
        "geometry": {
            "location": {
                "lat": 35.0624179,
                "lng": -88.7195124
            },
            "viewport": {
                "northeast": {
                    "lat": 35.06382912989272,
                    "lng": -88.71827077010728
                },
                "southwest": {
                    "lat": 35.06112947010728,
                    "lng": -88.72097042989272
                }
            }
        },
        "name": "Big Hill Pond State Park",
        "rating": 4.6
    },
    {
        "formatted_address": "1015 Big Ridge Park Rd, Maynardville, TN 37807, United States",
        "geometry": {
            "location": {
                "lat": 36.2423113,
                "lng": -83.9306787
            },
            "viewport": {
                "northeast": {
                    "lat": 36.24369742989272,
                    "lng": -83.92924052010727
                },
                "southwest": {
                    "lat": 36.24099777010728,
                    "lng": -83.93194017989272
                }
            }
        },
        "name": "Big Ridge State Park",
        "opening_hours": {
            "open_now": true
        },
        "rating": 4.6
    },
    {
        "formatted_address": "400 Zieglers Fort Rd, Gallatin, TN 37066, United States",
        "geometry": {
            "location": {
                "lat": 36.3770809,
                "lng": -86.3554544
            },
            "viewport": {
                "northeast": {
                    "lat": 36.37907497989271,
                    "lng": -86.3512843
                },
                "southwest": {
                    "lat": 36.37637532010727,
                    "lng": -86.3679647
                }
            }
        },
        "name": "Bledsoe Creek State Park",
        "opening_hours": {
            "open_now": false
        },
        "rating": 4.7
    },
    {
        "formatted_address": "5801 Champion Rd, Chattanooga, TN 37416, United States",
        "geometry": {
            "location": {
                "lat": 35.1123607,
                "lng": -85.1754191
            },
            "viewport": {
                "northeast": {
                    "lat": 35.11346209999999,
                    "lng": -85.16875414999998
                },
                "southwest": {
                    "lat": 35.1090565,
                    "lng": -85.17764075
                }
            }
        },
        "name": "Booker T. Washington State Park",
        "opening_hours": {
            "open_now": false
        },
        "rating": 4.6
    },
    {
        "formatted_address": "4000 Burgess Falls Dr, Sparta, TN 38583, United States",
        "geometry": {
            "location": {
                "lat": 36.0449134,
                "lng": -85.59607849999999
            },
            "viewport": {
                "northeast": {
                    "lat": 36.04566902989272,
                    "lng": -85.5932177
                },
                "southwest": {
                    "lat": 36.04296937010727,
                    "lng": -85.59703209999999
                }
            }
        },
        "name": "Burgess Falls State Park",
        "opening_hours": {
            "open_now": true
        },
        "rating": 4.8
    },
    {
        "formatted_address": "328 Cedar Forest Rd, Lebanon, TN 37090, United States",
        "geometry": {
            "location": {
                "lat": 36.0831487,
                "lng": -86.3191532
            },
            "viewport": {
                "northeast": {
                    "lat": 36.10542719999999,
                    "lng": -86.2896809
                },
                "southwest": {
                    "lat": 36.05909279999999,
                    "lng": -86.35053689999998
                }
            }
        },
        "name": "Cedars of Lebanon State Park",
        "opening_hours": {
            "open_now": false
        },
        "rating": 4.6
    },
    {
        "formatted_address": "20 Cabin Ln #4128, Henderson, TN 38340, United States",
        "geometry": {
            "location": {
                "lat": 35.39318069999999,
                "lng": -88.77248159999999
            },
            "viewport": {
                "northeast": {
                    "lat": 35.39518677989272,
                    "lng": -88.77067682010727
                },
                "southwest": {
                    "lat": 35.39248712010728,
                    "lng": -88.77337647989272
                }
            }
        },
        "name": "Chickasaw State Park",
        "opening_hours": {
            "open_now": true
        },
        "rating": 4.6
    },
    {
        "formatted_address": "1300 Cordell Hull Memorial Dr, Byrdstown, TN 38549, United States",
        "geometry": {
            "location": {
                "lat": 36.5788123,
                "lng": -85.18536429999999
            },
            "viewport": {
                "northeast": {
                    "lat": 36.58241409999999,
                    "lng": -85.18457144999999
                },
                "southwest": {
                    "lat": 36.57761170000001,
                    "lng": -85.18774285
                }
            }
        },
        "name": "Cordell Hull Birthplace State Park",
        "opening_hours": {
            "open_now": false
        },
        "rating": 4.7
    },
    {
        "formatted_address": "110 Cove Lake Ln, Caryville, TN 37714, United States",
        "geometry": {
            "location": {
                "lat": 36.30904,
                "lng": -84.21106
            },
            "viewport": {
                "northeast": {
                    "lat": 36.31023417989272,
                    "lng": -84.20971827010726
                },
                "southwest": {
                    "lat": 36.30753452010728,
                    "lng": -84.21241792989271
                }
            }
        },
        "name": "Cove Lake State Park",
        "opening_hours": {},
        "rating": 4.6
    },
    {
        "formatted_address": "24 Office Dr, Crossville, TN 38555, United States",
        "geometry": {
            "location": {
                "lat": 35.9010334,
                "lng": -84.9978771
            },
            "viewport": {
                "northeast": {
                    "lat": 35.90624074999999,
                    "lng": -84.98962015000001
                },
                "southwest": {
                    "lat": 35.89329655,
                    "lng": -85.00414754999998
                }
            }
        },
        "name": "Cumberland Mountain State Park",
        "opening_hours": {
            "open_now": true
        },
        "rating": 4.7
    },
    {
        "formatted_address": "390 Cummins Falls Ln, Cookeville, TN 38501, United States",
        "geometry": {
            "location": {
                "lat": 36.253694,
                "lng": -85.56531319999999
            },
            "viewport": {
                "northeast": {
                    "lat": 36.25545292989273,
                    "lng": -85.55447900000001
                },
                "southwest": {
                    "lat": 36.25275327010728,
                    "lng": -85.56892459999999
                }
            }
        },
        "name": "Cummins Falls State Park",
        "opening_hours": {
            "open_now": true
        },
        "rating": 4.7
    },
    {
        "formatted_address": "1400 W Gaines St, Lawrenceburg, TN 38464, United States",
        "geometry": {
            "location": {
                "lat": 35.2452526,
                "lng": -87.35130769999999
            },
            "viewport": {
                "northeast": {
                    "lat": 35.24653277989272,
                    "lng": -87.34991737010726
                },
                "southwest": {
                    "lat": 35.24383312010728,
                    "lng": -87.35261702989271
                }
            }
        },
        "name": "David Crockett State Park",
        "opening_hours": {
            "open_now": true
        },
        "rating": 4.7
    },
    {
        "formatted_address": "1245 Davy Crockett Park Rd #5825, Limestone, TN 37681, United States",
        "geometry": {
            "location": {
                "lat": 36.2075678,
                "lng": -82.6574141
            },
            "viewport": {
                "northeast": {
                    "lat": 36.20935342989272,
                    "lng": -82.65639412010728
                },
                "southwest": {
                    "lat": 36.20665377010727,
                    "lng": -82.65909377989271
                }
            }
        },
        "name": "David Crockett Birthplace State Park",
        "opening_hours": {
            "open_now": false
        },
        "rating": 4.6
    },
    {
        "formatted_address": "401 Old Dunbar Cave Rd, Clarksville, TN 37043, United States",
        "geometry": {
            "location": {
                "lat": 36.5559294,
                "lng": -87.3039441
            },
            "viewport": {
                "northeast": {
                    "lat": 36.55892644999999,
                    "lng": -87.30265255
                },
                "southwest": {
                    "lat": 36.54693824999999,
                    "lng": -87.30781875
                }
            }
        },
        "name": "Dunbar Cave State Park",
        "opening_hours": {
            "open_now": false
        },
        "rating": 4.6
    },
    {
        "formatted_address": "1630 Edgar Evins State Park Rd, Silver Point, TN 38582, United States",
        "geometry": {
            "location": {
                "lat": 36.08783680000001,
                "lng": -85.8130553
            },
            "viewport": {
                "northeast": {
                    "lat": 36.08923772989272,
                    "lng": -85.81163577010729
                },
                "southwest": {
                    "lat": 36.08653807010727,
                    "lng": -85.81433542989272
                }
            }
        },
        "name": "Edgar Evins State Park",
        "opening_hours": {
            "open_now": false
        },
        "rating": 4.7
    },
    {
        "formatted_address": "2009 Village Camp Rd, Spencer, TN 38585, United States",
        "geometry": {
            "location": {
                "lat": 35.6549779,
                "lng": -85.3559878
            },
            "viewport": {
                "northeast": {
                    "lat": 35.65623217989272,
                    "lng": -85.35461642010728
                },
                "southwest": {
                    "lat": 35.65353252010728,
                    "lng": -85.35731607989271
                }
            }
        },
        "name": "Fall Creek Falls State Park",
        "opening_hours": {
            "open_now": false
        },
        "rating": 4.8
    },
    {
        "formatted_address": "338 Fort Loudoun Rd, Vonore, TN 37885, United States",
        "geometry": {
            "location": {
                "lat": 35.5967631,
                "lng": -84.2034532
            },
            "viewport": {
                "northeast": {
                    "lat": 35.59811292989272,
                    "lng": -84.20210337010728
                },
                "southwest": {
                    "lat": 35.59541327010728,
                    "lng": -84.20480302989273
                }
            }
        },
        "name": "Fort Loudoun State Historic Park",
        "opening_hours": {
            "open_now": false
        },
        "rating": 4.8
    },
    {
        "formatted_address": "3122 Park Rd, Henning, TN 38041, United States",
        "geometry": {
            "location": {
                "lat": 35.6333943,
                "lng": -89.8516561
            },
            "viewport": {
                "northeast": {
                    "lat": 35.63416492989272,
                    "lng": -89.85042652010726
                },
                "southwest": {
                    "lat": 35.63146527010728,
                    "lng": -89.85312617989271
                }
            }
        },
        "name": "Fort Pillow State Historic Park",
        "opening_hours": {
            "open_now": false
        },
        "rating": 4.7
    },
    {
        "formatted_address": "3208, 964 Flat Fork Rd, Wartburg, TN 37887, United States",
        "geometry": {
            "location": {
                "lat": 36.1252852,
                "lng": -84.4917846
            },
            "viewport": {
                "northeast": {
                    "lat": 36.12642182989272,
                    "lng": -84.48447345000001
                },
                "southwest": {
                    "lat": 36.12372217010728,
                    "lng": -84.51371805000001
                }
            }
        },
        "name": "Frozen Head State Park",
        "opening_hours": {
            "open_now": false
        },
        "rating": 4.8
    },
    {
        "formatted_address": "1254 Narrows of the Harpeth Rd, Kingston Springs, TN 37082, United States",
        "geometry": {
            "location": {
                "lat": 36.1474308,
                "lng": -87.12177229999999
            },
            "viewport": {
                "northeast": {
                    "lat": 36.14868312989272,
                    "lng": -87.12024992010727
                },
                "southwest": {
                    "lat": 36.14598347010728,
                    "lng": -87.12294957989272
                }
            }
        },
        "name": "Harpeth River State Park",
        "opening_hours": {
            "open_now": true
        },
        "rating": 4.8
    },
    {
        "formatted_address": "7855 Bay Marina Circle, Harrison, TN 37341, United States",
        "geometry": {
            "location": {
                "lat": 35.1685,
                "lng": -85.12131490000002
            },
            "viewport": {
                "northeast": {
                    "lat": 35.16984992989273,
                    "lng": -85.11995747010728
                },
                "southwest": {
                    "lat": 35.16715027010728,
                    "lng": -85.12265712989273
                }
            }
        },
        "name": "Harrison Bay State Park",
        "opening_hours": {
            "open_now": false
        },
        "rating": 4.6
    },
    {
        "formatted_address": "4209 Nashville Hwy, Chapel Hill, TN 37034, United States",
        "geometry": {
            "location": {
                "lat": 35.5879705,
                "lng": -86.69938669999999
            },
            "viewport": {
                "northeast": {
                    "lat": 35.59054300000001,
                    "lng": -86.69281099999999
                },
                "southwest": {
                    "lat": 35.58711299999998,
                    "lng": -86.70157859999999
                }
            }
        },
        "name": "Henry Horton State Park",
        "opening_hours": {
            "open_now": false
        },
        "rating": 4.5
    },
    {
        "formatted_address": "404 Spring Creek Rd, Delano, TN 37325, United States",
        "geometry": {
            "location": {
                "lat": 35.2377336,
                "lng": -84.55065859999999
            },
            "viewport": {
                "northeast": {
                    "lat": 35.23902462989272,
                    "lng": -84.54912322010728
                },
                "southwest": {
                    "lat": 35.23632497010728,
                    "lng": -84.55182287989271
                }
            }
        },
        "name": "Hiwassee Ocoee State Park",
        "opening_hours": {
            "open_now": false
        },
        "rating": 4.7
    },
    {
        "formatted_address": "143 Indian Mt State Park Cir, Jellico, TN 37762, United States",
        "geometry": {
            "location": {
                "lat": 36.5870353,
                "lng": -84.14087529999999
            },
            "viewport": {
                "northeast": {
                    "lat": 36.5945955,
                    "lng": -84.14011739999998
                },
                "southwest": {
                    "lat": 36.5797623,
                    "lng": -84.143149
                }
            }
        },
        "name": "Indian Mountain State Park",
        "opening_hours": {
            "open_now": false
        },
        "rating": 4.7
    },
    {
        "formatted_address": "90 Nell Beard Rd, New Johnsonville, TN 37134, United States",
        "geometry": {
            "location": {
                "lat": 36.0529026,
                "lng": -87.9639392
            },
            "viewport": {
                "northeast": {
                    "lat": 36.05437482989272,
                    "lng": -87.96305512010728
                },
                "southwest": {
                    "lat": 36.05167517010727,
                    "lng": -87.96575477989272
                }
            }
        },
        "name": "Johnsonville State Historic Park",
        "opening_hours": {
            "open_now": false
        },
        "rating": 4.7
    },
    {
        "formatted_address": "Cumberland Trail, Tennessee, USA",
        "geometry": {
            "location": {
                "lat": 35.1395527,
                "lng": -85.381971
            },
            "viewport": {
                "northeast": {
                    "lat": 35.14090252989272,
                    "lng": -85.38062117010726
                },
                "southwest": {
                    "lat": 35.13820287010728,
                    "lng": -85.38332082989271
                }
            }
        },
        "name": "Cumberland Trail",
        "rating": 4.4
    },
    {
        "formatted_address": "2910 Hobson Pike, Hermitage, TN 37076, United States",
        "geometry": {
            "location": {
                "lat": 36.0925992,
                "lng": -86.55585339999999
            },
            "viewport": {
                "northeast": {
                    "lat": 36.09394357989272,
                    "lng": -86.55446507010727
                },
                "southwest": {
                    "lat": 36.09124392010727,
                    "lng": -86.55716472989272
                }
            }
        },
        "name": "Long Hunter State Park",
        "rating": 4.7
    },
    {
        "formatted_address": "910 Riddick Rd, Millington, TN 38053, United States",
        "geometry": {
            "location": {
                "lat": 35.3439035,
                "lng": -90.03275719999999
            },
            "viewport": {
                "northeast": {
                    "lat": 35.34516017989272,
                    "lng": -90.03136202010728
                },
                "southwest": {
                    "lat": 35.34246052010728,
                    "lng": -90.03406167989272
                }
            }
        },
        "name": "Meeman-Shelby Forest State Park",
        "opening_hours": {
            "open_now": false
        },
        "rating": 4.6
    },
    {
        "formatted_address": "1020 Jackson Hill Rd, Burns, TN 37029, United States",
        "geometry": {
            "location": {
                "lat": 36.0892572,
                "lng": -87.27837579999999
            },
            "viewport": {
                "northeast": {
                    "lat": 36.13293230000001,
                    "lng": -87.23412725
                },
                "southwest": {
                    "lat": 36.05841229999999,
                    "lng": -87.31135025
                }
            }
        },
        "name": "Montgomery Bell State Park",
        "opening_hours": {
            "open_now": false
        },
        "rating": 4.6
    },
    {
        "formatted_address": "3, Campground Rd, Linden, TN 37096, United States",
        "geometry": {
            "location": {
                "lat": 35.6685986,
                "lng": -88.0078259
            },
            "viewport": {
                "northeast": {
                    "lat": 35.67707315000001,
                    "lng": -88.00047274999999
                },
                "southwest": {
                    "lat": 35.64317495,
                    "lng": -88.01027695
                }
            }
        },
        "name": "Mousetail Landing State Park",
        "opening_hours": {
            "open_now": false
        },
        "rating": 4.6
    },
    {
        "formatted_address": "24845 Natchez Trace Rd, Wildersville, TN 38388, United States",
        "geometry": {
            "location": {
                "lat": 35.7285016,
                "lng": -88.2996945
            },
            "viewport": {
                "northeast": {
                    "lat": 35.8677204,
                    "lng": -88.20478095000001
                },
                "southwest": {
                    "lat": 35.6657416,
                    "lng": -88.37833834999998
                }
            }
        },
        "name": "Natchez Trace State Park",
        "opening_hours": {
            "open_now": false
        },
        "rating": 4.6
    },
    {
        "formatted_address": "1825 Pilot Knob Rd, Eva, TN 38333, United States",
        "geometry": {
            "location": {
                "lat": 36.0833038,
                "lng": -87.9854818
            },
            "viewport": {
                "northeast": {
                    "lat": 36.08464902989272,
                    "lng": -87.98412822010727
                },
                "southwest": {
                    "lat": 36.08194937010728,
                    "lng": -87.98682787989272
                }
            }
        },
        "name": "Nathan Bedford Forrest State Park",
        "opening_hours": {
            "open_now": false
        },
        "rating": 4.7
    },
    {
        "formatted_address": "125 Village Green Cir, Rocky Top, TN 37769, United States",
        "geometry": {
            "location": {
                "lat": 36.2399937,
                "lng": -84.10392619999999
            },
            "viewport": {
                "northeast": {
                    "lat": 36.24737449999999,
                    "lng": -84.07748060000002
                },
                "southwest": {
                    "lat": 36.2178513,
                    "lng": -84.11901379999998
                }
            }
        },
        "name": "Norris Dam State Park",
        "opening_hours": {
            "open_now": false
        },
        "rating": 4.8
    },
    {
        "formatted_address": "732 Stone Fort Dr, Manchester, TN 37355, United States",
        "geometry": {
            "location": {
                "lat": 35.4862509,
                "lng": -86.10269439999999
            },
            "viewport": {
                "northeast": {
                    "lat": 35.48761122989273,
                    "lng": -86.10100117010728
                },
                "southwest": {
                    "lat": 35.48491157010728,
                    "lng": -86.10370082989272
                }
            }
        },
        "name": "Old Stone Fort State Archaeological Park",
        "opening_hours": {
            "open_now": false
        },
        "rating": 4.7
    },
    {
        "formatted_address": "2010 Panther Creek Park Rd, Morristown, TN 37814, United States",
        "geometry": {
            "location": {
                "lat": 36.2133504,
                "lng": -83.4068471
            },
            "viewport": {
                "northeast": {
                    "lat": 36.21723645000001,
                    "lng": -83.40578437010728
                },
                "southwest": {
                    "lat": 36.20169225,
                    "lng": -83.40848402989272
                }
            }
        },
        "name": "Panther Creek State Park",
        "opening_hours": {
            "open_now": false
        },
        "rating": 4.8
    },
    {
        "formatted_address": "16055 Highway 79 N, Buchanan, TN 38222, United States",
        "geometry": {
            "location": {
                "lat": 36.434078,
                "lng": -88.0864294
            },
            "viewport": {
                "northeast": {
                    "lat": 36.4469957,
                    "lng": -88.05979719999999
                },
                "southwest": {
                    "lat": 36.4288201,
                    "lng": -88.1214612
                }
            }
        },
        "name": "Paris Landing State Park",
        "opening_hours": {
            "open_now": false
        },
        "rating": 4.6
    },
    {
        "formatted_address": "4605 Pickett Park Hwy, Jamestown, TN 38556, United States",
        "geometry": {
            "location": {
                "lat": 36.5521734,
                "lng": -84.7973308
            },
            "viewport": {
                "northeast": {
                    "lat": 36.55350462989272,
                    "lng": -84.79600262010727
                },
                "southwest": {
                    "lat": 36.55080497010728,
                    "lng": -84.79870227989272
                }
            }
        },
        "name": "Pickett CCC Memorial State Park",
        "opening_hours": {
            "open_now": false
        },
        "rating": 4.8
    },
    {
        "formatted_address": "116 State Park Rd, Counce, TN 38326, United States",
        "geometry": {
            "location": {
                "lat": 35.0551895,
                "lng": -88.2387213
            },
            "viewport": {
                "northeast": {
                    "lat": 35.05644837989271,
                    "lng": -88.23735072010727
                },
                "southwest": {
                    "lat": 35.05374872010727,
                    "lng": -88.24005037989272
                }
            }
        },
        "name": "Pickwick Landing State Park",
        "opening_hours": {
            "open_now": false
        },
        "rating": 4.6
    },
    {
        "formatted_address": "460 Ozier Rd, Pinson, TN 38366, United States",
        "geometry": {
            "location": {
                "lat": 35.4955608,
                "lng": -88.6866015
            },
            "viewport": {
                "northeast": {
                    "lat": 35.50848044999999,
                    "lng": -88.6781436
                },
                "southwest": {
                    "lat": 35.49125425,
                    "lng": -88.68942080000001
                }
            }
        },
        "name": "Pinson Mounds State Archaeological Park",
        "opening_hours": {
            "open_now": false
        },
        "rating": 4.7
    },
    {
        "formatted_address": "3300 Old Clarksville Hwy, Adams, TN 37010, United States",
        "geometry": {
            "location": {
                "lat": 36.5538624,
                "lng": -87.1422434
            },
            "viewport": {
                "northeast": {
                    "lat": 36.55529617989272,
                    "lng": -87.14121062010727
                },
                "southwest": {
                    "lat": 36.55259652010728,
                    "lng": -87.14391027989272
                }
            }
        },
        "name": "Port Royal State Historic Park",
        "opening_hours": {
            "open_now": false
        },
        "rating": 4.3
    },
    {
        "formatted_address": "1160 Otter Creek Rd, Nashville, TN 37220, United States",
        "geometry": {
            "location": {
                "lat": 36.0630891,
                "lng": -86.8096497
            },
            "viewport": {
                "northeast": {
                    "lat": 36.06437052989272,
                    "lng": -86.80848067010727
                },
                "southwest": {
                    "lat": 36.06167087010727,
                    "lng": -86.81118032989272
                }
            }
        },
        "name": "Radnor Lake State Park",
        "rating": 4.8
    },
    {
        "formatted_address": "1140 Red Clay Park Rd SW, Cleveland, TN 37311, United States",
        "geometry": {
            "location": {
                "lat": 34.9913072,
                "lng": -84.9465609
            },
            "viewport": {
                "northeast": {
                    "lat": 34.99674259999999,
                    "lng": -84.94489627010728
                },
                "southwest": {
                    "lat": 34.9894954,
                    "lng": -84.94759592989271
                }
            }
        },
        "name": "Red Clay State Historic Park",
        "opening_hours": {
            "open_now": false
        },
        "rating": 4.8
    },
    {
        "formatted_address": "2595 Highway 21 East, Tiptonville, TN 38079, United States",
        "geometry": {
            "location": {
                "lat": 36.4293928,
                "lng": -89.3748458
            },
            "viewport": {
                "northeast": {
                    "lat": 36.51184495000001,
                    "lng": -89.3148675
                },
                "southwest": {
                    "lat": 36.30192395,
                    "lng": -89.48714989999999
                }
            }
        },
        "name": "Reelfoot Lake State Park",
        "opening_hours": {
            "open_now": false
        },
        "rating": 4.7
    },
    {
        "formatted_address": "527 TN-143, Roan Mountain, TN 37687, United States",
        "geometry": {
            "location": {
                "lat": 36.1703403,
                "lng": -82.1004207
            },
            "viewport": {
                "northeast": {
                    "lat": 36.19401584999999,
                    "lng": -82.06609785
                },
                "southwest": {
                    "lat": 36.13737564999999,
                    "lng": -82.11186165
                }
            }
        },
        "name": "Roan Mountain State Park",
        "opening_hours": {
            "open_now": false
        },
        "rating": 4.8
    },
    {
        "formatted_address": "82 Beach Rd, Rock Island, TN 38581, United States",
        "geometry": {
            "location": {
                "lat": 35.8103936,
                "lng": -85.6418257
            },
            "viewport": {
                "northeast": {
                    "lat": 35.81561780000001,
                    "lng": -85.61099425
                },
                "southwest": {
                    "lat": 35.79472099999999,
                    "lng": -85.65210285000002
                }
            }
        },
        "name": "Rock Island State Park",
        "opening_hours": {
            "open_now": false
        },
        "rating": 4.8
    },
    {
        "formatted_address": "501 Rocky Fork Rd, Flag Pond, TN 37657, United States",
        "geometry": {
            "location": {
                "lat": 36.0476265,
                "lng": -82.556468
            },
            "viewport": {
                "northeast": {
                    "lat": 36.0746751,
                    "lng": -82.5477587
                },
                "southwest": {
                    "lat": 36.0339516,
                    "lng": -82.606448
                }
            }
        },
        "name": "Lamar Alexander Rocky Fork State Park",
        "rating": 4.8
    },
    {
        "formatted_address": "2809 Kelly Ln, Kodak, TN 37764, United States",
        "geometry": {
            "location": {
                "lat": 35.9530344,
                "lng": -83.6877598
            },
            "viewport": {
                "northeast": {
                    "lat": 35.95484207989271,
                    "lng": -83.68568349999998
                },
                "southwest": {
                    "lat": 35.95214242010727,
                    "lng": -83.6884519
                }
            }
        },
        "name": "Seven Islands State Birding Park",
        "opening_hours": {
            "open_now": false
        },
        "rating": 4.8
    },
    {
        "formatted_address": "2609 N York Hwy, Pall Mall, TN 38577, United States",
        "geometry": {
            "location": {
                "lat": 36.5416465,
                "lng": -84.959628
            },
            "viewport": {
                "northeast": {
                    "lat": 36.54303772989272,
                    "lng": -84.95826162010728
                },
                "southwest": {
                    "lat": 36.54033807010727,
                    "lng": -84.96096127989271
                }
            }
        },
        "name": "Sgt. Alvin C. York State Historic Park",
        "opening_hours": {
            "open_now": false
        },
        "rating": 4.8
    },
    {
        "formatted_address": "7608, 11745 US Hwy 41, Monteagle, TN 37356, United States",
        "geometry": {
            "location": {
                "lat": 35.257525,
                "lng": -85.78887209999999
            },
            "viewport": {
                "northeast": {
                    "lat": 35.2591548,
                    "lng": -85.7876815
                },
                "southwest": {
                    "lat": 35.2526356,
                    "lng": -85.7924439
                }
            }
        },
        "name": "South Cumberland State Park",
        "opening_hours": {
            "open_now": false
        },
        "rating": 4.7
    },
    {
        "formatted_address": "1674 Standing Stone Park Hwy, Hilham, TN 38568, United States",
        "geometry": {
            "location": {
                "lat": 36.4714237,
                "lng": -85.41502229999999
            },
            "viewport": {
                "northeast": {
                    "lat": 36.47276127989272,
                    "lng": -85.41383542010729
                },
                "southwest": {
                    "lat": 36.47006162010728,
                    "lng": -85.41653507989272
                }
            }
        },
        "name": "Standing Stone State Park",
        "opening_hours": {
            "open_now": true
        },
        "rating": 4.7
    },
    {
        "formatted_address": "1651 W Elk Ave, Elizabethton, TN 37643, United States",
        "geometry": {
            "location": {
                "lat": 36.342888,
                "lng": -82.25493469999999
            },
            "viewport": {
                "northeast": {
                    "lat": 36.34439847989272,
                    "lng": -82.24886134999998
                },
                "southwest": {
                    "lat": 36.34169882010728,
                    "lng": -82.25695914999999
                }
            }
        },
        "name": "Sycamore Shoals State Historic Park",
        "opening_hours": {
            "open_now": false
        },
        "rating": 4.7
    },
    {
        "formatted_address": "570 Tims Ford Dr, Winchester, TN 37398, United States",
        "geometry": {
            "location": {
                "lat": 35.2198207,
                "lng": -86.2554413
            },
            "viewport": {
                "northeast": {
                    "lat": 35.22183387989272,
                    "lng": -86.25438527010728
                },
                "southwest": {
                    "lat": 35.21913422010727,
                    "lng": -86.25708492989271
                }
            }
        },
        "name": "Tims Ford State Park",
        "opening_hours": {
            "open_now": false
        },
        "rating": 4.7
    },
    {
        "formatted_address": "1500 W Mitchell Rd, Memphis, TN 38109, United States",
        "geometry": {
            "location": {
                "lat": 35.0636144,
                "lng": -90.1104029
            },
            "viewport": {
                "northeast": {
                    "lat": 35.07535425000001,
                    "lng": -90.09981755
                },
                "southwest": {
                    "lat": 35.05155765,
                    "lng": -90.14215895000001
                }
            }
        },
        "name": "T.O. Fuller State Park",
        "opening_hours": {
            "open_now": false
        },
        "rating": 4.4
    },
    {
        "formatted_address": "490 Hemlock Rd, Kingsport, TN 37663, United States",
        "geometry": {
            "location": {
                "lat": 36.4988144,
                "lng": -82.4872103
            },
            "viewport": {
                "northeast": {
                    "lat": 36.50015642989272,
                    "lng": -82.48583107010728
                },
                "southwest": {
                    "lat": 36.49745677010728,
                    "lng": -82.48853072989272
                }
            }
        },
        "name": "Warriors' Path State Park",
        "opening_hours": {
            "open_now": false
        },
        "rating": 4.7
    }
]